우편번호,설치기관주소,실제위치,설치기관명,경도,위도,GU_ID,GU_NAME,,,,,
6544,서울특별시 서초구 신반포로 270 자이안지하센터1층,자이안센터지하1층,반포자이아파트,127.0115816,37.50785869,22,서초구,,,,,
6544,서울특별시 서초구 신반포로 270 자이안치안센터지하2층,자이안센터지하2층,반포자이아파트,127.0115816,37.50785869,22,서초구,,,,,
6544,서울특별시 서초구 신반포로 270 수영장,수영장,반포자이아파트,127.0115816,37.50785869,22,서초구,,,,,
6544,서울특별시 서초구 신반포로 270 노인정,노인정,반포자이아파트,127.0115816,37.50785869,22,서초구,,,,,
4572,서울특별시 중구 청계천로 400,생활지원센터,롯데캐슬베네치아아파트,127.0214621,37.57081199,2,중구,,,,,
4605,"서울특별시 중구 장충단로 60, 반얀트리 클럽 앤 스파 서울 (장충동2가)",로비,반얀트리클럽앤스파서울,127.0004975,37.55007101,2,중구,,,,,
7910,"서울특별시 양천구 남부순환로54길 5, 신월3동주민센터 (신월동)",1층 민원실,신월3동주민센터,126.8290822,37.53363175,15,양천구,,,,,
7929,"서울특별시 양천구 오목로5길 34, 신월4동주민센터 (신월동)",1층 민원실,신월4동주민센터,126.8400811,37.52469581,15,양천구,,,,,
8039,"서울특별시 양천구 남부순환로70길 16-3, 신월7동주민센터 (신월동)",1층 민원실,신월7동주민센터,126.8343032,37.52169734,15,양천구,,,,,
8077,"서울특별시 양천구 중앙로 209, 신정3동주민센터 (신정동)",1층 민원실,신정3동주민센터,126.8547892,37.51514715,15,양천구,,,,,
7969,"서울특별시 양천구 목동중앙로 지하 217, 신목동역 (목동)",B2 대합실 발매기 옆,9호선 신목동역,126.8824828,37.54401,15,양천구,,,,,
8007,"서울특별시 양천구 목동동로12길 59 (목동, 목동현대아파트)",노인정(2층),현대(A),126.8777802,37.52317796,15,양천구,,,,,
8008,"서울특별시 양천구 신목로 10 (신정동, 목동현대아파트)",관리사무소 2층,현대(B),126.8766663,37.51812758,15,양천구,,,,,
8016,"서울특별시 양천구 신목로 5 (신정동, 목동삼성아파트)",105동 입구,목동삼성,126.8765552,37.51693814,15,양천구,,,,,
4347,"서울특별시 용산구 소월로 322, 하얏트호텔 (한남동)",클럽올림푸스 리셉션 데스크,하얏트호텔,126.9962408,37.53976298,3,용산구,,,,,
8048,"서울특별시 양천구 신정로7길 70 (신정동, 푸른마을1단지아파트)",관리사무소1층,푸른마을1단지(영구임대),126.8362322,37.51265801,15,양천구,,,,,
8004,"서울특별시 양천구 오목로 300 (목동, 현대하이페리온2)",201동 입구,목동현대하이페리온2차,126.8699183,37.52434807,15,양천구,,,,,
8008,"서울특별시 양천구 목동동로12길 60 (신정동, 목동현대아파트)","101동 3,4라인 승강기입구",목동현대아파트,126.8772373,37.52038789,15,양천구,,,,,
8008,"서울특별시 양천구 목동동로12길 60 (신정동, 목동현대아파트)","102동 3,4라인 승강기입구",목동현대아파트,126.8772373,37.52038789,15,양천구,,,,,
6792,"서울특별시 서초구 헌릉로 15-18, 글로벌인제교육원 1층 (염곡동)",1층 로비,(주)코웍스,127.0455487,37.46506899,22,서초구,,,,,
8008,"서울특별시 양천구 목동동로12길 60 (신정동, 목동현대아파트)","103동 3,4라인 승강기입구",목동현대아파트,126.8772373,37.52038789,15,양천구,,,,,
8008,"서울특별시 양천구 목동동로12길 60 (신정동, 목동현대아파트)","104동 3,4라인 승강기입구",목동현대아파트,126.8772373,37.52038789,15,양천구,,,,,
5822,"서울특별시 송파구 중대로20길 6, 가락2동주민센터 (가락동)",민원대기실,가락2동주민센터,127.1266095,37.49867675,24,송파구,,,,,
8008,"서울특별시 양천구 목동동로12길 60 (신정동, 목동현대아파트)","105동 3,4라인 승강기입구",목동현대아파트,126.8772373,37.52038789,15,양천구,,,,,
8008,"서울특별시 양천구 목동동로12길 60 (신정동, 목동현대아파트)","106동 3,4라인 승강기입구",목동현대아파트,126.8772373,37.52038789,15,양천구,,,,,
6977,"서울특별시 동작구 상도로53길 70 상도SH빌아파트 (상도동, 상도에스에이치빌)",관리사무소,상도SH빌아파트,126.954541,37.50253458,20,동작구,,,,,
6925,서울특별시 동작구 만양로3길 78 신동아리버파크 (노량진동),제2관리사무소,신동아리버파크,126.9416001,37.50596713,20,동작구,,,,,
156032,서울특별시 동작구 상도2동 414-8,108동 10-17경비실,상도건영아파트(임대),126.9508632,37.50767424,20,동작구,,,,,
8391,"서울특별시 구로구 도림천로 477, 구로디지털단지역 (구로동)",가게이트 오른쪽벽면개찰구 옆,2호선 구로디지털단지역,126.9014944,37.48531492,17,구로구,,,,,
6545,"서울특별시 서초구 신반포로 지하188, 9호선 고속터미널역 (반포동)",대합실 B4층,9호선 고속터미널역,127.0044421,37.50464718,22,서초구,,,,,
8365,"서울특별시 구로구 천왕로 92  (오류동, 천왕이펜하우스2단지)",정문경비 1초소,천왕이펜하우스2단지아파트,126.8389882,37.48286374,17,구로구,,,,,
120807,서울특별시 서대문구 증가로10길 28,1층 정문 왼쪽 벽,남가좌2동주민센터,126.9227206,37.58185646,13,서대문구,,,,,
120080,서울특별시 서대문구 통일로 251,형무소역사관내 전시관,서대문형무소역사관,126.9564945,37.57391976,13,서대문구,,,,,
3953,서울특별시 마포구 월드컵로 215,제2통합경비실,성산임대아파트,126.9011563,37.56429981,14,마포구,,,,,
4153,서울특별시 마포구 독막로 268,관리사무소 내부,대흥동태영임대아파트,126.9428791,37.54566158,14,마포구,,,,,
4180,서울특별시 마포구 새창로8길 72,관리사무소 내부,도화2차현대임대아파트,126.9513421,37.5386455,14,마포구,,,,,
4193,서울특별시 마포구 백범로37길 6,관리사무소,신공덕삼성임대아파트,126.9563522,37.54241166,14,마포구,,,,,
4303,서울특별시 용산구 청파로83길 26,4층 종합사무실과 상담실 사이,청파노인복지관,126.9676967,37.55200626,3,용산구,,,,,
7296,서울특별시 영등포구 문래로 110 문래청소년수련관,지하1층 의무실,서울시립문래청소년수련관,126.8941147,37.51885225,19,영등포구,,,,,
1167,서울특별시 강북구 삼양로54길 68 강북청소년문화정보도서관 (미아동),2층 로비,강북청소년문화정보센터,127.0215555,37.62308136,9,강북구,,,,,
1151,서울특별시 강북구 오현로 117 강북오동골프클럽,1층 정문 우측 벽면,오동골프클럽,127.0363441,37.62263652,9,강북구,,,,,
1424,서울특별시 도봉구 덕릉로 329,사무실,창동종합사회복지관,127.0455094,37.64483768,10,도봉구,,,,,
1233,"서울특별시 강북구 오패산로 162, 송중동 주민센터 (미아동)",주민센터 입구,송중동주민센터,127.0337803,37.61612179,9,강북구,,,,,
1145,"서울특별시 강북구 한천로 897, 번2동주민센터 (번동)",주민센터 입구,번2동주민센터,127.0390622,37.6318813,9,강북구,,,,,
1103,"서울특별시 강북구 삼양로 299, 수유1동 주민센터 (수유동)",주민센터 입구,수유1동주민센터,127.0175594,37.6300516,9,강북구,,,,,
1191,"서울특별시 강북구 솔샘로 159 벽산라이브파크아파트 제2관리사무소 (미아동, 벽산라이브파크)",202동 경비실앞,벽산라이브파크아파트(제2관리사무소),127.0124075,37.62182327,9,강북구,,,,,
1323,서울특별시 도봉구 마들로 770,관리사무소,도봉서광아파트,127.0495261,37.67719571,10,도봉구,,,,,
7205,서울특별시 영등포구 양평로 지하 124 9호선 선유도역,지하2층 발매기옆,9호선 선유도역,126.8934205,37.53813152,19,영등포구,,,,,
7214,서울특별시 영등포구 양평로 지하 40 9호선 당산역,8번출구 역무실 옆,9호선당산역,126.9021696,37.53373879,19,영등포구,,,,,
7236,서울특별시 영등포구 국회대로 지하 758 9호선 국회의사당역,대합실 게이트 주변,9호선 국회의사당역,126.9178855,37.52806743,19,영등포구,,,,,
7327,서울특별시 영등포구 의사당대로 지하 101 9호선 여의도역,9호선 개찰구 입구,9호선 여의도역,126.9239689,37.52190694,19,영등포구,,,,,
7324,서울특별시 영등포구 의사당대로 지하 166 9호선 샛강역,지하2층 개찰구 내부,9호선샛강역,126.9284192,37.5173965,19,영등포구,,,,,
6111,"서울특별시 강남구 강남대로128길 59, 논현노인종합복지관 (논현동)",2층 복도 벽면,논현노인종합복지관,127.026089,37.51206542,23,강남구,,,,,
8095,"서울특별시 양천구 목동서로 339, 양천보건소 (신정동)",1층 안내데스크 옆,양천구보건소,126.8655609,37.51749427,15,양천구,,,,,
7921,서울특별시 양천구 남부순환로 407 (신월동),신월지역보건센터 1층,신월보건지소,126.8318233,37.53133706,15,양천구,,,,,
6164,서울특별시 강남구 테헤란로87길 22 (삼성동),터미널 2층,한국도심공항공사,127.0594434,37.50963226,23,강남구,,,,,
6164,"서울특별시 강남구 테헤란로 517, 현대백화점 (삼성동)",B1층 푸드코트 계산대 옆,현대백화점 무역센타점,127.0597651,37.50861513,23,강남구,,,,,
6008,"서울특별시 강남구 압구정로 343, 갤러리아백화점 (압구정동)",주차장옆보안관실,㈜갤러리아 명품관(서관),127.0400535,37.52847463,23,강남구,,,,,
6009,"서울특별시 강남구 압구정로 407, 갤러리아백화점 (압구정동)",1층 안내데스크옆,㈜갤러리아 명품관(동관),127.0418316,37.527919,23,강남구,,,,,
6228,"서울특별시 강남구 논현로64길 7, 역삼청소년수련관 (역삼동)",1층 로비 벽면,역삼청소년수련관,127.040912,37.49397443,23,강남구,,,,,
6228,"서울특별시 강남구 논현로64길 7, 역삼청소년수련관 (역삼동)",지하2층 헬스장 앞,역삼청소년수련관,127.040912,37.49397443,23,강남구,,,,,
5026,"서울특별시 광진구 자양로 117, 광진구보건소 (자양동)",광진구보건소 1층 내과,광진구보건소,127.0820143,37.53872796,5,광진구,,,,,
4963,서울특별시 광진구 워커힐로 177 파라다이스워커힐 카지노,안내데스크 옆,㈜파라다이스워커힐카지노,127.1107088,37.55529103,5,광진구,,,,,
6164,"서울특별시 강남구 테헤란로87길 46, 호텔오크우드프리미어 (삼성동)",5층 프론트 데스크,호텔오크우드프리미어,127.0582056,37.5109824,23,강남구,,,,,
6572,"서울특별시 서초구 방배로 173, 방배열린문화센터(방배4동주민센터) 2층 (방배동)",방배보건지소 2층(열린문화센터),서초구방배보건지소,126.9922432,37.48900635,22,서초구,,,,,
6164,"서울특별시 강남구 영동대로 513, 코엑스 (삼성동)",전시/컨벤션 1층 서문안전사무실,코엑스,127.059159,37.51182391,23,강남구,,,,,
6546,"서울특별시 서초구 신반포로 176, 센트럴시티 (반포동)",1층 대합실 정문,센트럴시티,127.0024112,37.50393446,22,서초구,,,,,
7505,서울특별시 강서구 하늘길 76,국내선 3층 격리대합실(좌),한국공항공사 서울지역본부,126.8033549,37.55878586,16,강서구,,,,,
7505,서울특별시 강서구 하늘길 76,국제선 2층 입국심사대,한국공항공사 서울지역본부,126.800771,37.56583488,16,강서구,,,,,
7505,서울특별시 강서구 하늘길 76,국제선 3층 38Gate,한국공항공사 서울지역본부,126.8009153,37.56573674,16,강서구,,,,,
6164,"서울특별시 강남구 영동대로 513, 코엑스 (삼성동)",전시/컨벤션 2층 컨벤션 지원센터,코엑스,127.059159,37.51182391,23,강남구,,,,,
6590,서울특별시 서초구 반포대로 157 행정법원 1층,행정법원 1층,서울행정법원,127.0361898,37.48124455,22,서초구,,,,,
6219,"서울특별시 강남구 도곡로43길 20 (역삼동, 래미안 그레이튼)",201동 1층 계단실,역삼동래미안그레이튼아파트,127.0486171,37.49686518,23,강남구,,,,,
6219,"서울특별시 강남구 도곡로43길 20 (역삼동, 래미안 그레이튼)",202동 1층 계단실,역삼동래미안그레이튼아파트,127.0486171,37.49686518,23,강남구,,,,,
6219,"서울특별시 강남구 도곡로43길 20 (역삼동, 래미안 그레이튼)",203동 1층 계단실,역삼동래미안그레이튼아파트,127.0486171,37.49686518,23,강남구,,,,,
6219,"서울특별시 강남구 도곡로43길 20 (역삼동, 래미안 그레이튼)",204동 1층 계단실,역삼동래미안그레이튼아파트,127.0486171,37.49686518,23,강남구,,,,,
6219,"서울특별시 강남구 도곡로43길 20 (역삼동, 래미안 그레이튼)",205동 1층 계단실,역삼동래미안그레이튼아파트,127.0486171,37.49686518,23,강남구,,,,,
6219,"서울특별시 강남구 도곡로43길 20 (역삼동, 래미안 그레이튼)",206동 1층 계단실,역삼동래미안그레이튼아파트,127.0486171,37.49686518,23,강남구,,,,,
6219,"서울특별시 강남구 도곡로43길 20 (역삼동, 래미안 그레이튼)",207동 1층 계단실,역삼동래미안그레이튼아파트,127.0486171,37.49686518,23,강남구,,,,,
6219,"서울특별시 강남구 도곡로43길 20 (역삼동, 래미안 그레이튼)",208동 1층 계단실,역삼동래미안그레이튼아파트,127.0486171,37.49686518,23,강남구,,,,,
6236,"서울특별시 강남구 테헤란로20길 9, 동궁빌딩 (역삼동)",1층 로비,동궁빌딩,127.0345413,37.49918645,23,강남구,,,,,
6168,서울특별시 강남구 삼성로 512 (삼성동),1층로비,삼성동빌딩,127.0565982,37.50810735,23,강남구,,,,,
3919,서울특별시 마포구 월드컵북로62길 11,2층 현관,일본인학교,126.8844154,37.5836103,14,마포구,,,,,
6050,"서울특별시 강남구 언주로 721, 서울세관 (논현동)",1층 로비,서울본부세관,127.0337788,37.51830058,23,강남구,,,,,
5241,서울특별시 강동구 상암로3길 28,암사제2동주민센터,암사제2동주민센터,127.1272709,37.5517063,25,강동구,,,,,
1145,"서울특별시 강북구 한천로 897, 강북보건소,번2동 주민센터 (번동)",특수구급차 내,강북구보건소,127.0390622,37.6318813,9,강북구,,,,,
4922,서울특별시 광진구 긴고랑로 110,중곡종합건강센터 내,중곡보건지소,127.0871651,37.55946435,5,광진구,,,,,
4963,서울특별시 광진구 워커힐로 177  (광장동),비스타호텔 1층 프론트,sk네트웍스(주)워커힐,127.1117068,37.55862873,5,광진구,,,,,
4963,서울특별시 광진구 워커힐로 177  (광장동),비스타호텔 3층 피트니스센터 내부,sk네트웍스(주)워커힐,127.1117068,37.55863008,5,광진구,,,,,
4963,서울특별시 광진구 워커힐로 177  (광장동),비스타호텔 보안과 사무실 내,sk네트웍스(주)워커힐,127.1117068,37.55862873,5,광진구,,,,,
4963,서울특별시 광진구 워커힐로 177  (광장동),그랜드워커힐호텔 본관 1층 로비,sk네트웍스(주)워커힐,127.1117068,37.55863008,5,광진구,,,,,
4963,서울특별시 광진구 워커힐로 177  (광장동),그랜드워커힐호텔 본관 B2 보안과,sk네트웍스(주)워커힐,127.1117068,37.55863008,5,광진구,,,,,
2751,서울특별시 성북구 화랑로 63,구급차76루7945 내부,성북구보건소,127.0395315,37.60270967,8,성북구,,,,,
5584,서울특별시 송파구 백제고분로 242 송파구민회관,관리사무실 입구 왼쪽,송파구민회관,127.0932225,37.50218308,24,송파구,,,,,
5666,서울특별시 송파구 백제고분로42길 5 1층로비,송파구여성문화회관 1층로비,송파구여성문화회관,127.1097327,37.5059306,24,송파구,,,,,
8095,"서울특별시 양천구 목동서로 349, 센트럴프라자 (신정동)",1층 로비 안내데스크 앞쪽,센트럴프라자,126.8653068,37.51740654,15,양천구,,,,,
3433,"서울특별시 은평구 갈현로7길 49, 서울서북병원 (역촌동)",서북병원 본관 1층,서울특별시서북병원,126.9056649,37.60435804,12,은평구,,,,,
3433,"서울특별시 은평구 갈현로7길 49, 서울서북병원 (역촌동)",서북병원 동관 1층(당직실옆),서울특별시서북병원,126.9056649,37.60435804,12,은평구,,,,,
5091,"서울특별시 광진구 뚝섬로 568, 자양제3동주민센터 (자양동)",민원실 내,자양3동주민센터,127.0729024,37.53383394,5,광진구,,,,,
4915,"서울특별시 광진구 긴고랑로12길 49, 중곡제1동주민센터 (중곡동)",민원실내,중곡1동주민센터,127.0800508,37.56066681,5,광진구,,,,,
4927,서울특별시 광진구 능동로 346 .,민원실 내,중곡2동주민센터,127.0814764,37.56015047,5,광진구,,,,,
5047,"서울특별시 광진구 강변역로 17, 구의3동주민센터 (구의동)",구의3동주민센터 내,구의3동주민센터,127.091984,37.53799261,5,광진구,,,,,
4968,서울특별시 광진구 광장로 52 .,민원실 내,광장동주민센터,127.1030122,37.54688177,5,광진구,,,,,
4530,"서울특별시 중구 소공로 63, 신세계백화점건물 (충무로1가)",본관 1층 북문 출입구,신세계본점,126.980979,37.56091902,2,중구,,,,,
4582,서울특별시 중구 퇴계로90길 74,상황실임대동,래미안하이베르아파트(분양동),127.0209858,37.56103798,2,중구,,,,,
8094,"서울특별시 양천구 목동동로 81, 해누리타운 (신정동)",1층 당직실 내,양천구시설관리공단(해누리타운),126.8638564,37.51597633,15,양천구,,,,,
4099,서울특별시 마포구 서강로 68,데이케어센터내2층엘리베이터앞,마포데이케어센터,126.932206,37.54892548,14,마포구,,,,,
6350,"서울특별시 강남구 일원로 90, 밀알학교 (일원동)",학교 2층 교무실,밀알학교,127.0820718,37.48578186,23,강남구,,,,,
6194,"서울특별시 강남구 테헤란로 440, 포스코센터 (대치동)",공용부 2층 로비 안내데스크,포스코센터,127.056133,37.50581326,23,강남구,,,,,
7355,서울특별시 영등포구 여의대방로 259,1층 로비,공군회관,126.9241336,37.51024635,19,영등포구,,,,,
2748,"서울특별시 성북구 화랑로13길 144, 성북구민체육관 (하월곡동)",1층 입구,성북구민체육관,127.0418325,37.60845336,8,성북구,,,,,
6546,"서울특별시 서초구 신반포로 176, 센트럴시티 (반포동)",지하1층 보안실,JW메이어트호텔,127.0049304,37.50371299,22,서초구,,,,,
5857,서울특별시 송파구 정의로 37 서울동부구치소 (문정동),3층 의료과(치료실),서울동부구치소,127.1163822,37.48213045,24,송파구,,,,,
5540,서울특별시 송파구 올림픽로 424 올림픽공원 실내테니스장,실내테니스경기장 1층 회원안내실,올림픽공원실내테니스장,127.1280184,37.51380499,24,송파구,,,,,
5540,서울특별시 송파구 올림픽로 424 올림픽공원 수영장,1층 의무실,올림픽공원수영장,127.1155184,37.52034114,24,송파구,,,,,
5540,서울특별시 송파구 올림픽로 424 올림픽공원 수영장,"1층 헬스장, 수영장내",올림픽공원수영장,127.1161666,37.52103247,24,송파구,,,,,
5540,서울특별시 송파구 올림픽로 424 올림픽공원 골프연습장,중앙공급실 지하 1층 안내데스크,올림픽공원 체조경기장,127.1161666,37.52103247,24,송파구,,,,,
6636,"서울특별시 서초구 서초대로64길 76-21, 삼성라이온즈레포츠센타 (서초동)",3층 1번 PT룸 옆,삼성레포츠센터(신라),127.0215303,37.49182443,22,서초구,,,,,
6792,"서울특별시 서초구 헌릉로 13, 대한무역투자진흥공사(코트라) (염곡동)",1층 해외진출상담센터 옆,코트라,127.0447513,37.46512254,22,서초구,,,,,
5698,서울특별시 송파구 양재대로 897,1층현관,가락종합사회복지관,127.1068969,37.49556578,24,송파구,,,,,
5560,서울특별시 송파구 올림픽로12길 12,1층로비,잠실종합사회복지관,127.0827797,37.5105621,24,송파구,,,,,
5537,서울특별시 송파구 강동대로3길 5,1층 행정팀 앞,풍납종합사회복지관,127.113851,37.52772836,24,송파구,,,,,
6730,서울특별시 서초구 강남대로 273 해성산업,현관입구,해성산업(송남빌딩),127.0319425,37.48752607,22,서초구,,,,,
6273,"서울특별시 강남구 언주로57길 31, 도곡중학교 (도곡동)",보건실 앞,도곡중학교,127.0452179,37.49230771,23,강남구,,,,,
6003,"서울특별시 강남구 압구정로 225, 압구정중학교 (압구정동)",보건실 앞,압구정중학교,127.0330027,37.53024224,23,강남구,,,,,
6236,"서울특별시 강남구 테헤란로 152(역삼동, 강남파이낸스센터)",22층 까페테리아입구,구글코리아,127.0365086,37.50002424,23,강남구,,,,,
6073,서울특별시 강남구 학동로95길 51 (청담동),로비 앞,청담스포피아,127.0527608,37.52228066,23,강남구,,,,,
6236,"서울특별시 강남구 테헤란로 152 (역삼동, 강남파이낸스센터)",26층 정문출입구,유엘코리아,127.0365086,37.50002424,23,강남구,,,,,
6236,"서울특별시 강남구 테헤란로 152 (역삼동, 강남파이낸스센터)",26층 후문(사무실),유엘코리아,127.0365086,37.50002424,23,강남구,,,,,
6023,서울특별시 강남구 언주로173길 20 (신사동),의료기관 4층 투석실 내,세실내과의원,127.0318383,37.52813664,23,강남구,,,,,
6164,"서울특별시 강남구 영동대로 513, 코엑스 (삼성동)",아셈타워 1층,코엑스,127.059159,37.51182391,23,강남구,,,,,
6236,"서울특별시 강남구 테헤란로 152 (역삼동, 강남파이낸스센터)",34층 리셉션데스크(건물북쪽방향)입구 안쪽,주식회사 지마켓,127.0365086,37.50002424,23,강남구,,,,,
6236,"서울특별시 강남구 테헤란로 152 (역삼동, 강남파이낸스센터)",36층 사무실(건물북쪽방향)입구 안쪽,주식회사 지마켓,127.0365086,37.50002424,23,강남구,,,,,
4317,서울특별시 용산구 효창원로 146-12,지하1층 수영장,효창종합사회복지관,126.9626091,37.54111536,3,용산구,,,,,
4763,"서울특별시 성동구 왕십리로 222-1, 한양대학교병원 (사근동)",본관1층 로비,한양대학교병원,127.0435742,37.55965517,4,성동구,,,,,
4763,"서울특별시 성동구 왕십리로 222-1, 한양대학교병원 (사근동)",동관1층(류마티스병원),한양대학교병원,127.0448872,37.559943,4,성동구,,,,,
4763,"서울특별시 성동구 왕십리로 222-1, 한양대학교병원 (사근동)",국제협력병원(내시경실),한양대학교병원,127.0433874,37.55964623,4,성동구,,,,,
4763,"서울특별시 성동구 왕십리로 222-1, 한양대학교병원 (사근동)",서관5층(내분비대사내과),한양대학교병원,127.0433817,37.55957415,4,성동구,,,,,
4775,"서울특별시 성동구 성덕정9가길 13, 성원중학교 (성수동2가)",3층 보건실,성원중학교,127.0513833,37.53945164,4,성동구,,,,,
4761,"서울특별시 성동구 마조로 42, 한양대부속중고등학교 (사근동)",신관정보관2층 보건실 앞,한양대학교사범대학부속고등학교,127.042324,37.56191884,4,성동구,,,,,
8209,"서울특별시 구로구 경인로 662  (신도림동, 디큐브시티)",지하1층 안전관리실 옆,"현대백화점,디큐브시티",126.888213,37.50812307,17,구로구,,,,,
4963,서울특별시 광진구 워커힐로 177  (광장동),그랜드워커힐호텔 본관 B2 헬스장 내,sk네트웍스(주)워커힐,127.1117068,37.55863008,5,광진구,,,,,
4963,서울특별시 광진구 워커힐로 177  (광장동),더글라스 건물 1층 로비,sk네트웍스(주)워커힐,127.1117068,37.55862873,5,광진구,,,,,
4963,서울특별시 광진구 워커힐로 177  (광장동),그랜드워커힐 호텔 지하2층 건강관리실,sk네트웍스(주)워커힐,127.1117068,37.55862873,5,광진구,,,,,
5094,"서울특별시 광진구 뚝섬로36가길 15, 삼성아파트 (자양동)",101동 3호라인 승강기 앞,자양동삼성아파트,127.0715583,37.53195563,5,광진구,,,,,
5094,"서울특별시 광진구 뚝섬로36가길 15, 삼성아파트 (자양동)",102동3~4라인 승강기 앞,자양동삼성아파트,127.0715574,37.53195563,5,광진구,,,,,
5094,"서울특별시 광진구 뚝섬로36가길 15, 삼성아파트 (자양동)",102동7~11라인 승강기 앞,자양동삼성아파트,127.0715583,37.53195563,5,광진구,,,,,
5094,"서울특별시 광진구 뚝섬로36가길 15, 삼성아파트 (자양동)",103동5~9라인 승강기 옆,자양동삼성아파트,127.0715574,37.53195563,5,광진구,,,,,
5094,"서울특별시 광진구 뚝섬로36가길 15, 삼성아파트 (자양동)",104동입구,자양동삼성아파트,127.0715574,37.53195563,5,광진구,,,,,
4383,서울특별시 용산구 서빙고로 137 국립박물관문화재단,국립중앙박물관 MUSEUM SHOP 입구,국립박물관문화재단,126.9822349,37.52303803,3,용산구,,,,,
6650,"서울특별시 서초구 서초중앙로 83, 서운빌딩 6층 (서초동)",특수구급차-70로 8767 내부,엠티케어응급환자이송단,126.9899108,37.48757033,22,서초구,,,,,
6650,"서울특별시 서초구 서초중앙로 83, 서운빌딩 6층 (서초동)",특수구급차-70두 7923 내부,엠티케어응급환자이송단,126.9899108,37.48757033,22,서초구,,,,,
6650,"서울특별시 서초구 서초중앙로 83, 서운빌딩 6층 (서초동)",특수구급차-75보 9137 내부,엠티케어응급환자이송단,127.014211,37.48913189,22,서초구,,,,,
6650,"서울특별시 서초구 서초중앙로 83, 서운빌딩 6층 (서초동)",특수구급차-71고 6475 내부,엠티케어응급환자이송단,127.014211,37.48913189,22,서초구,,,,,
6611,"서울특별시 서초구 강남대로 465, 교보생명보험(주) 서초사옥 (서초동)",1층로비,교보타워,127.0241095,37.50375605,22,서초구,,,,,
6521,"서울특별시 서초구 신반포로33길 15 (잠원동, 동아아파트)",101동앞,잠원동아아파트,127.0095233,37.5090446,22,서초구,,,,,
6521,"서울특별시 서초구 신반포로33길 15 (잠원동, 동아아파트)",102동앞,잠원동아아파트,127.0095233,37.5090446,22,서초구,,,,,
6521,"서울특별시 서초구 신반포로33길 15 (잠원동, 동아아파트)",103동앞,잠원동아아파트,127.0095233,37.5090446,22,서초구,,,,,
6521,"서울특별시 서초구 신반포로33길 15 (잠원동, 동아아파트)",104동앞,잠원동아아파트,127.0095233,37.5090446,22,서초구,,,,,
6521,"서울특별시 서초구 신반포로33길 15 (잠원동, 동아아파트)",105동앞,잠원동아아파트,127.0095233,37.5090446,22,서초구,,,,,
6521,"서울특별시 서초구 신반포로33길 15 (잠원동, 동아아파트)",106동앞,잠원동아아파트,127.0095233,37.5090446,22,서초구,,,,,
6521,"서울특별시 서초구 신반포로33길 15 (잠원동, 동아아파트)",107동앞,잠원동아아파트,127.0095233,37.5090446,22,서초구,,,,,
6521,"서울특별시 서초구 신반포로33길 15 (잠원동, 동아아파트)",108동앞,잠원동아아파트,127.0095233,37.5090446,22,서초구,,,,,
6620,"서울특별시 서초구 서초대로74길 11, 삼성전자빌딩 3층 (서초동)",안내데스크(남측),삼성전자서초사옥,127.0269145,37.49663336,22,서초구,,,,,
6620,"서울특별시 서초구 서초대로74길 11, 삼성전자빌딩 26층 (서초동)",A파트,삼성전자서초사옥,127.0269145,37.49663336,22,서초구,,,,,
6620,"서울특별시 서초구 서초대로74길 11, 삼성전자빌딩 PH2층 (서초동)",전기실 내부,삼성전자서초사옥,127.0269145,37.49663336,22,서초구,,,,,
6620,"서울특별시 서초구 서초대로74길 11, 삼성전자빌딩 5층 (서초동)",코페레이트 사무실,삼성전자서초사옥,127.0269145,37.49663336,22,서초구,,,,,
6620,"서울특별시 서초구 서초대로74길 11, 삼성전자빌딩  27층 (서초동)",A파트,삼성전자서초사옥,127.0269145,37.49663336,22,서초구,,,,,
6620,"서울특별시 서초구 서초대로74길 11, 삼성전자빌딩 6층 (서초동)",안내데스크(서측),삼성전자서초사옥,127.0269145,37.49663336,22,서초구,,,,,
6620,"서울특별시 서초구 서초대로74길 11, 삼성전자빌딩 5층 (서초동)",다목적홀 입구측,삼성전자서초사옥,127.0269145,37.49663336,22,서초구,,,,,
6620,"서울특별시 서초구 서초대로74길 11, 삼성전자빌딩 1층 (서초동)",정문데스크,삼성전자서초사옥,127.0269145,37.49663336,22,서초구,,,,,
6620,"서울특별시 서초구 서초대로74길 11, 삼성전자빌딩 42층 (서초동)",42층 A파트동측,삼성전자서초사옥,127.0269145,37.49663336,22,서초구,,,,,
6620,"서울특별시 서초구 서초대로74길 11, 삼성전자빌딩 19층 (서초동)",승강기홀입구(동측),삼성전자서초사옥,127.0269145,37.49663336,22,서초구,,,,,
6620,"서울특별시 서초구 서초대로74길 11, 삼성전자빌딩  19층 (서초동)",A파트,삼성전자서초사옥,127.0269145,37.49663336,22,서초구,,,,,
6620,"서울특별시 서초구 서초대로74길 11, 삼성전자빌딩 28층 (서초동)",A파트,삼성전자서초사옥,127.0269145,37.49663336,22,서초구,,,,,
6620,"서울특별시 서초구 서초대로74길 11, 삼성전자빌딩 22층 (서초동)",B파트 전기실 내부,삼성전자서초사옥,127.0269145,37.49663336,22,서초구,,,,,
6620,"서울특별시 서초구 서초대로74길 11, 삼성전자빌딩 B6층 (서초동)",셔틀 승강기 앞,삼성전자서초사옥,127.0275597,37.49659201,22,서초구,,,,,
6620,"서울특별시 서초구 서초대로74길 11, 삼성전자빌딩 39층 (서초동)",B파트,삼성전자서초사옥,127.0269145,37.49663336,22,서초구,,,,,
6620,"서울특별시 서초구 서초대로74길 11, 삼성전자빌딩 26층 (서초동)",B파트,삼성전자서초사옥,127.0269145,37.49663336,22,서초구,,,,,
6620,"서울특별시 서초구 서초대로74길 11, 삼성전자빌딩 38층 (서초동)",38층 A파트동측,삼성전자서초사옥,127.0269145,37.49663336,22,서초구,,,,,
6620,"서울특별시 서초구 서초대로74길 11, 삼성전자빌딩 B8층 (서초동)",시설 사무실 앞,삼성전자서초사옥,127.0269145,37.49663336,22,서초구,,,,,
6620,"서울특별시 서초구 서초대로74길 11, 삼성전자빌딩 B1층 (서초동)",빌딩운영센터,삼성전자서초사옥,127.0269145,37.49663336,22,서초구,,,,,
6620,"서울특별시 서초구 서초대로74길 11, 삼성전자빌딩 1층 (서초동)",홍보관 데스크 앞,삼성전자서초사옥,127.0269145,37.49663336,22,서초구,,,,,
6620,"서울특별시 서초구 서초대로74길 11, 삼성전자빌딩 B7층 (서초동)",셔틀 승강기 앞,삼성전자서초사옥,127.0269145,37.49663336,22,서초구,,,,,
6620,"서울특별시 서초구 서초대로74길 11, 삼성전자빌딩 B5층 (서초동)",셔틀 승강기 앞,삼성전자서초사옥,127.0269145,37.49663336,22,서초구,,,,,
6620,"서울특별시 서초구 서초대로74길 11, 삼성전자빌딩  42층 (서초동)",42층 B파트서측,삼성전자서초사옥,127.0269145,37.49663336,22,서초구,,,,,
6620,"서울특별시 서초구 서초대로74길 11, 삼성전자빌딩 1층 (서초동)",라운지 앞(남측),삼성전자서초사옥,127.0269145,37.49663336,22,서초구,,,,,
6620,"서울특별시 서초구 서초대로74길 11, 삼성전자빌딩 B8층 (서초동)",전기실 입구 앞,삼성전자서초사옥,127.0269145,37.49663336,22,서초구,,,,,
6620,"서울특별시 서초구 서초대로74길 11, 삼성전자빌딩  39층 (서초동)",A파트,삼성전자서초사옥,127.0269145,37.49663336,22,서초구,,,,,
6620,"서울특별시 서초구 서초대로74길 11, 삼성전자빌딩  B1층 (서초동)",우리은행 앞,삼성전자서초사옥,127.0269145,37.49663336,22,서초구,,,,,
6620,"서울특별시 서초구 서초대로74길 11, 삼성전자빌딩 40층 (서초동)",상황실,삼성전자서초사옥,127.0269145,37.49663336,22,서초구,,,,,
6620,"서울특별시 서초구 서초대로74길 11, 삼성전자빌딩 B2층 (서초동)",셔틀 승강기 앞,삼성전자서초사옥,127.0269145,37.49663336,22,서초구,,,,,
6620,"서울특별시 서초구 서초대로74길 11, 삼성전자빌딩 B3층 (서초동)",셔틀 승강기 앞,삼성전자서초사옥,127.0269145,37.49663336,22,서초구,,,,,
6620,"서울특별시 서초구 서초대로74길 11, 삼성전자빌딩 41층 (서초동)",41층 A파트동측,삼성전자서초사옥,127.0269145,37.49663336,22,서초구,,,,,
6620,"서울특별시 서초구 서초대로74길 11, 삼성전자빌딩 30층 (서초동)",승강기홀입구(동측),삼성전자서초사옥,127.0269145,37.49663336,22,서초구,,,,,
6620,"서울특별시 서초구 서초대로74길 11, 삼성전자빌딩 31층 (서초동)",31층 북측,삼성전자서초사옥,127.0269145,37.49663336,22,서초구,,,,,
6620,"서울특별시 서초구 서초대로74길 11, 삼성전자빌딩  B4층 (서초동)",셔틀 승강기 앞,삼성전자서초사옥,127.0269145,37.49663336,22,서초구,,,,,
6544,서울특별시 서초구 신반포로 270 101동,101동앞,반포자이아파트,127.0115816,37.50785869,22,서초구,,,,,
6544,서울특별시 서초구 신반포로 270 102동,102동앞,반포자이아파트,127.0115816,37.50785869,22,서초구,,,,,
6544,서울특별시 서초구 신반포로 270 103동,103동앞,반포자이아파트,127.0115816,37.50785869,22,서초구,,,,,
6544,서울특별시 서초구 신반포로 270 104동,104동앞,반포자이아파트,127.0115816,37.50785869,22,서초구,,,,,
6544,서울특별시 서초구 신반포로 270 105동앞,105동앞,반포자이아파트,127.0115816,37.50785869,22,서초구,,,,,
6544,서울특별시 서초구 신반포로 270 106동,106동앞,반포자이아파트,127.0115816,37.50785869,22,서초구,,,,,
6544,서울특별시 서초구 신반포로 270 107동,107동앞,반포자이아파트,127.0115816,37.50785869,22,서초구,,,,,
6544,서울특별시 서초구 신반포로 270 108동,108동앞,반포자이아파트,127.0115816,37.50785869,22,서초구,,,,,
6544,서울특별시 서초구 신반포로 270 109동,109동앞,반포자이아파트,127.0115816,37.50785869,22,서초구,,,,,
6544,서울특별시 서초구 신반포로 270 110동,110동앞,반포자이아파트,127.0115816,37.50785869,22,서초구,,,,,
6544,서울특별시 서초구 신반포로 270 111동,111동앞,반포자이아파트,127.0115816,37.50785869,22,서초구,,,,,
6544,서울특별시 서초구 신반포로 270 112동,112동앞,반포자이아파트,127.0115816,37.50785869,22,서초구,,,,,
6544,서울특별시 서초구 신반포로 270 113동,113동앞,반포자이아파트,127.0115816,37.50785869,22,서초구,,,,,
6544,서울특별시 서초구 신반포로 270 114동,114동앞,반포자이아파트,127.0115816,37.50785869,22,서초구,,,,,
6544,서울특별시 서초구 신반포로 270 115동,115동앞,반포자이아파트,127.0115816,37.50785869,22,서초구,,,,,
6544,서울특별시 서초구 신반포로 270 116동,116동앞,반포자이아파트,127.0115816,37.50785869,22,서초구,,,,,
6544,서울특별시 서초구 신반포로 270 117동,117동앞,반포자이아파트,127.0115816,37.50785869,22,서초구,,,,,
6544,서울특별시 서초구 신반포로 270 118동,118동앞,반포자이아파트,127.0155629,37.50839523,22,서초구,,,,,
6544,서울특별시 서초구 신반포로 270 119동,119동앞,반포자이아파트,127.0115816,37.50785869,22,서초구,,,,,
6544,서울특별시 서초구 신반포로 270 120동,120동앞,반포자이아파트,127.0115816,37.50785869,22,서초구,,,,,
6544,서울특별시 서초구 신반포로 270 121동,121동앞,반포자이아파트,127.0115816,37.50785869,22,서초구,,,,,
6544,서울특별시 서초구 신반포로 270 122동,122동앞,반포자이아파트,127.0115816,37.50785869,22,서초구,,,,,
6544,서울특별시 서초구 신반포로 270 123동,123동앞,반포자이아파트,127.0115816,37.50785869,22,서초구,,,,,
6544,서울특별시 서초구 신반포로 270 124동,124동앞,반포자이아파트,127.0115816,37.50785869,22,서초구,,,,,
6544,서울특별시 서초구 신반포로 270 125동,125동앞,반포자이아파트,127.0115816,37.50785869,22,서초구,,,,,
6544,서울특별시 서초구 신반포로 270 126동,126동앞,반포자이아파트,127.0115816,37.50785869,22,서초구,,,,,
6544,서울특별시 서초구 신반포로 270 127동,127동앞,반포자이아파트,127.0115816,37.50785869,22,서초구,,,,,
6544,서울특별시 서초구 신반포로 270 128동,128동앞,반포자이아파트,127.0115816,37.50785869,22,서초구,,,,,
6544,서울특별시 서초구 신반포로 270 129동,129동앞,반포자이아파트,127.0115816,37.50785869,22,서초구,,,,,
6544,서울특별시 서초구 신반포로 270 130동,130동앞,반포자이아파트,127.0115816,37.50785869,22,서초구,,,,,
6544,서울특별시 서초구 신반포로 270 131동,131동앞,반포자이아파트,127.0115816,37.50785869,22,서초구,,,,,
6544,서울특별시 서초구 신반포로 270 132동,132동앞,반포자이아파트,127.0115816,37.50785869,22,서초구,,,,,
6544,서울특별시 서초구 신반포로 270 133동,133동앞,반포자이아파트,127.0115816,37.50785869,22,서초구,,,,,
6544,서울특별시 서초구 신반포로 270 134동,134동앞,반포자이아파트,127.0115816,37.50785869,22,서초구,,,,,
6544,서울특별시 서초구 신반포로 270 135동,135동앞,반포자이아파트,127.0115816,37.50785869,22,서초구,,,,,
6544,서울특별시 서초구 신반포로 270 136동,136동앞,반포자이아파트,127.0115816,37.50785869,22,서초구,,,,,
6544,서울특별시 서초구 신반포로 270 137동,137동앞,반포자이아파트,127.0115816,37.50785869,22,서초구,,,,,
6544,서울특별시 서초구 신반포로 270 138동,138동앞,반포자이아파트,127.0115816,37.50785869,22,서초구,,,,,
6544,서울특별시 서초구 신반포로 270 139동,139동앞,반포자이아파트,127.0115816,37.50785869,22,서초구,,,,,
6544,서울특별시 서초구 신반포로 270 140동,140동앞,반포자이아파트,127.0115816,37.50785869,22,서초구,,,,,
6544,서울특별시 서초구 신반포로 270 141동,141동앞,반포자이아파트,127.0115816,37.50785869,22,서초구,,,,,
6544,서울특별시 서초구 신반포로 270 142동,142동앞,반포자이아파트,127.0115816,37.50785869,22,서초구,,,,,
6544,서울특별시 서초구 신반포로 270 143동,143동앞,반포자이아파트,127.0115816,37.50785869,22,서초구,,,,,
6544,서울특별시 서초구 신반포로 270 반포자이아파트,144동앞,반포자이아파트,127.0115816,37.50785869,22,서초구,,,,,
6544,서울특별시 서초구 신반포로 270 111동-2,111동앞2,반포자이아파트,127.0115816,37.50785869,22,서초구,,,,,
6544,서울특별시 서초구 신반포로 270 1102동 2,112동앞2,반포자이아파트,127.0115816,37.50785869,22,서초구,,,,,
6544,서울특별시 서초구 신반포로 270 113동-2,113동앞2,반포자이아파트,127.0115816,37.50785869,22,서초구,,,,,
6544,서울특별시 서초구 신반포로 270 114동-2,114동앞2,반포자이아파트,127.0115816,37.50785869,22,서초구,,,,,
6544,서울특별시 서초구 신반포로 270 115동-2,115동앞2,반포자이아파트,127.0115816,37.50785869,22,서초구,,,,,
6544,서울특별시 서초구 신반포로 270 116동 2,116동앞2,반포자이아파트,127.0115816,37.50785869,22,서초구,,,,,
6544,서울특별시 서초구 신반포로 270 126동 2,126동앞2,반포자이아파트,127.0115816,37.50785869,22,서초구,,,,,
6544,서울특별시 서초구 신반포로 270 127동 2,127동앞2,반포자이아파트,127.0115816,37.50785869,22,서초구,,,,,
6544,서울특별시 서초구 신반포로 270 128동,128동앞2,반포자이아파트,127.0115816,37.50785869,22,서초구,,,,,
6544,서울특별시 서초구 신반포로 270 129동,129동앞2,반포자이아파트,127.0115816,37.50785869,22,서초구,,,,,
6544,서울특별시 서초구 신반포로 270 131동-2,131동앞2,반포자이아파트,127.0115816,37.50785869,22,서초구,,,,,
6544,서울특별시 서초구 신반포로 270 132동,132동앞2,반포자이아파트,127.0115816,37.50785869,22,서초구,,,,,
6544,서울특별시 서초구 신반포로 270 133동 2,133동앞2,반포자이아파트,127.0115816,37.50785869,22,서초구,,,,,
6544,서울특별시 서초구 신반포로 270 134동,134동앞2,반포자이아파트,127.0115816,37.50785869,22,서초구,,,,,
6544,서울특별시 서초구 신반포로 270 135동 2,135동앞2,반포자이아파트,127.0115816,37.50785869,22,서초구,,,,,
6544,서울특별시 서초구 신반포로 270 기전실,기전실,반포자이아파트,127.0115816,37.50785869,22,서초구,,,,,
6544,서울특별시 서초구 신반포로 270 상황실,상황실,반포자이아파트,127.0115816,37.50785869,22,서초구,,,,,
6756,서울특별시 서초구 남부순환로340길 15,1층 안내실,서초구립한우리정보문화센터,127.0250125,37.48205213,22,서초구,,,,,
6751,서울특별시 서초구 바우뫼로 91,정문,양재우성아파트,127.0317993,37.47504029,22,서초구,,,,,
6751,서울특별시 서초구 바우뫼로 91 5초소,5초소,양재우성아파트,127.0317993,37.47504029,22,서초구,,,,,
6744,"서울특별시 서초구 바우뫼로35길 32, 참포도나무병원 (양재동)",참포도나무병원신관2층 엘레베이터 앞,참포도나무병원,127.0386803,37.47992892,22,서초구,,,,,
6634,"서울특별시 서초구 서초중앙로 126, 서울365mc병원 (서초동)",2층 안내데스크 옆 벽면,서울365mc병원,127.0170798,37.49439339,22,서초구,,,,,
8004,"서울특별시 양천구 오목로 300 (목동, 현대하이페리온2)",203동 현관,목동현대하이페리온2차,126.8697609,37.5241114,15,양천구,,,,,
8004,"서울특별시 양천구 오목로 300 (목동, 현대하이페리온2)",204동입구,목동현대하이페리온2차,126.8704081,37.5239086,15,양천구,,,,,
8050,"서울특별시 양천구 신정이펜1로 50 (신정동, 신정이펜하우스3단지)",정문경비초소,신정이펜하우스3단지,126.8293575,37.51335106,15,양천구,,,,,
8050,"서울특별시 양천구 신정이펜1로 50 (신정동, 신정이펜하우스3단지)",중문경비초소,신정이펜하우스3단지,126.8293575,37.51335106,15,양천구,,,,,
8054,"서울특별시 양천구 신정로11길 20 (신정동, 동일하이빌아파트)",105동 출입구,신정동동일하이빌아파트,126.8392726,37.51176332,15,양천구,,,,,
8054,"서울특별시 양천구 신정로11길 20 (신정동, 동일하이빌아파트)",205동 출입구,신정동동일하이빌아파트,126.8391204,37.51186549,15,양천구,,,,,
7967,"서울특별시 양천구 목동중앙로 11 (목동, 대원칸타빌2단지아파트)","201,202동 경비실",목동대원칸타빌아파트2단지,126.867372,37.53181471,15,양천구,,,,,
7967,"서울특별시 양천구 목동중앙로 11 (목동, 대원칸타빌2단지아파트)","203,204동 경비실",목동대원칸타빌아파트2단지,126.8664304,37.53190638,15,양천구,,,,,
7967,"서울특별시 양천구 목동중앙로 11 (목동, 대원칸타빌2단지아파트)","205동 1,2호 출입구",목동대원칸타빌아파트2단지,126.8666304,37.53185082,15,양천구,,,,,
7967,"서울특별시 양천구 목동중앙로 11 (목동, 대원칸타빌2단지아파트)",204동 앞 경로당,목동대원칸타빌아파트2단지,126.8668364,37.53218335,15,양천구,,,,,
7967,"서울특별시 양천구 목동중앙로 9 (목동, 대원칸타빌3단지아파트)",301동 경비실,목동대원칸타빌아파트3단지,126.8668364,37.53218335,15,양천구,,,,,
7255,서울특별시 영등포구 선유로 156 코스트코 코리아 양평점,1층 엘리베이터 옆,코스트코코리아양평점,126.8921857,37.52766726,19,영등포구,,,,,
5267,"서울특별시 강동구 고덕로 210 (명일동, 삼익그린맨션)",302동 입구,삼익그린2차아파트,127.147061,37.5538093,25,강동구,,,,,
5267,"서울특별시 강동구 고덕로 210 (명일동, 삼익그린맨션)",303동 입구,삼익그린2차아파트,127.147061,37.5538093,25,강동구,,,,,
5267,"서울특별시 강동구 고덕로 210 (명일동, 삼익그린맨션)",501동 입구,삼익그린2차아파트,127.147061,37.5538093,25,강동구,,,,,
5267,"서울특별시 강동구 고덕로 210 (명일동, 삼익그린맨션)",601동 입구,삼익그린2차아파트,127.147061,37.5538093,25,강동구,,,,,
5270,서울특별시 강동구 동남로71길 19,1동2라인 1층,명일한양아파트,127.1547215,37.55104561,25,강동구,,,,,
5270,서울특별시 강동구 동남로71길 19,2동 2라인 1층,명일한양아파트,127.1547215,37.55104561,25,강동구,,,,,
5270,서울특별시 강동구 동남로71길 19,3동 2라인 1층,명일한양아파트,127.1547215,37.55104561,25,강동구,,,,,
5270,서울특별시 강동구 동남로71길 19,5동 2라인 1층,명일한양아파트,127.1547215,37.55104561,25,강동구,,,,,ㅁ
5270,서울특별시 강동구 동남로71길 19,4동 2라인 1층,명일한양아파트,127.1547215,37.55104561,25,강동구,,,,,
5270,서울특별시 강동구 동남로71길 19,6동 1라인 1층,명일한양아파트,127.1547215,37.55104561,25,강동구,,,,,
5236,서울특별시 강동구 고덕로27길 36,경비실 정문,강동현대홈타운아파트,127.1384363,37.55688987,25,강동구,,,,,
5026,"서울특별시 광진구 자양로 117, 광진구청 (자양동)",광진구청 안전관리동 1층 입구,광진구청(행정지원동),127.0819124,37.5385399,5,광진구,,,,,
7901,"서울특별시 양천구 월정로 280, 서울강신초등학교 (신월동)",강신초등학교 보건실,서울강신초등학교,126.8295837,37.54209971,15,양천구,,,,,
7322,서울특별시 영등포구 여의동로3길 3 윤중중학교,1층 보건실 옆 복도,윤중중학교,126.9241249,37.51893165,19,영등포구,,,,,
3967,서울특별시 마포구 성미산로 51,1층 보건실 옆 복도,홍익대학교사범대학부속여자중학교,126.9132084,37.55964474,14,마포구,,,,,
4102,서울특별시 마포구 백범로1길 56,1층 현관입구,서울창천초등학교,126.9392951,37.55491782,14,마포구,,,,,
3929,"서울특별시 마포구 성암로 179, 한샘상암 (상암동)",6층 민원실 내,국민건강보험공단 마포지사,126.8987638,37.57615091,14,마포구,,,,,
7397,서울특별시 영등포구 도림로80가길 14 대영중학교,1층 중앙현관,대영중학교,126.905208,37.50343784,19,영등포구,,,,,
4117,서울특별시 마포구 마포대로 247,본관 1층 로비 보건실앞,아현중학교,126.9565,37.55640071,14,마포구,,,,,
3967,서울특별시 마포구 성미산로 51,1층 보건실옆 복도,홍익대학교사범대학부속여자고등학교,126.9130952,37.56040608,14,마포구,,,,,
120795,서울특별시 서대문구 이화여대8길 62 (북아현동) 두산아파트,관리사무소 입구,북아현두산아파트,126.9501107,37.55918055,13,서대문구,,,,,
120758,서울특별시 서대문구 연희로 377 (홍은동) 현대아파트,관리사무소 입구,홍은현대아파트,126.9377349,37.59011122,13,서대문구,,,,,
5026,"서울특별시 광진구 자양로 117, 광진구청 (자양동)",민원복지동 민원여권과 종합민원실 입구,광진구청(행정지원동),127.0819124,37.5385399,5,광진구,,,,,
2054,"서울특별시 중랑구 신내로 128 (신내동, 동성아파트)",1층 관리사무소 출입구,"신내동성1,2차아파트",127.0976798,37.60911615,7,중랑구,,,,,
7902,"서울특별시 양천구 남부순환로29길 35, 신화중학교 (신월동)",2층 보건실,신화중학교,126.8298965,37.54082326,15,양천구,,,,,
8523,"서울특별시 금천구 시흥대로123길 11, 독산1동주민센터 (독산동)",6층휴게실,금천구치매지원센터,126.8970437,37.47021905,18,금천구,,,,,
8832,서울특별시 관악구 관악로 145 관악구청별관,별관4층 관악구정신건강복지센터,관악구정신건강증진센터,126.9515012,37.47821067,21,관악구,,,,,
3044,"서울특별시 종로구 효자로 9, 통의파출소 (통의동)",파출소 내,통의파출소,126.9739989,37.57677206,1,종로구,,,,,
3097,"서울특별시 종로구 낙산성곽동길 20-1, 덕산파출소 (창신동)",1층,혜화경찰서 덕산파출소,127.0093447,37.57440692,1,종로구,,,,,
3011,서울특별시 종로구 평창문화로 46,파출소 내,평창파출소,126.9658941,37.60503592,1,종로구,,,,,
7643,"서울특별시 강서구 수명로1길 16  (내발산동, 마곡수명산파크4단지아파트)",410동 1층 관리사무소 앞,마곡수명산파크4단지아파트,126.8225614,37.552048,16,강서구,,,,,
7635,서울특별시 강서구 수명로2길 105,관리사무소 (505동),마곡수명산파크5단지아파트,126.8275826,37.55158692,16,강서구,,,,,
7581,서울특별시 강서구 강서로68길 36 관리사무소,관리사무소,등촌주공1단지아파트,126.8425126,37.56401811,16,강서구,,,,,
7235,서울특별시 영등포구 여의공원로 13 한국방송공사,2층 출연자대기실 안내데스크,KBS공개홀,126.9161064,37.52610497,19,영등포구,,,,,
1145,"서울특별시 강북구 한천로 897, 강북보건소,번2동 주민센터 (번동)",보건소 내,강북구보건소,127.0390622,37.6318813,9,강북구,,,,,
7397,서울특별시 영등포구 도림로86길 16 대영고등학교,1층 보건실 쪽 현관 입구,대영고등학교,126.9058641,37.50366271,19,영등포구,,,,,
7341,서울특별시 영등포구 국제금융로7가길 13 여의도여자고등학교,별관 2층 보건실,여의도여자고등학교,126.9350871,37.52288764,19,영등포구,,,,,
7436,서울특별시 영등포구 대방천로14길 18 영신고등학교,1층 후관 보건실 옆,영신고등학교,126.909739,37.49810094,19,영등포구,,,,,
6196,서울특별시 강남구 역삼로69길 22 (대치동),기관 내,구립대치노인복지관,127.0541314,37.5030427,23,강남구,,,,,
6368,"서울특별시 강남구 광평로56길 11 (수서동, 수서6단지아파트)",단지 내,SH공사수서6단지아파트,127.1056314,37.48797908,23,강남구,,,,,
6341,"서울특별시 강남구 양재대로55길 10 (일원동, 수서1단지 에스에이치빌)",단지 내,수서1단지에스에이치빌,127.0902766,37.49292753,23,강남구,,,,,
6366,"서울특별시 강남구 헌릉로590길 63 강남데시앙파크아파트 (세곡동, 강남데시앙파크)",1층 방제실 앞,강남데시앙파크아파트,127.1015425,37.46104609,23,강남구,,,,,
6293,"서울특별시 강남구 남부순환로 지하 2814, 도곡역 (도곡동)",역 내,3호선 도곡역,127.0553257,37.49086414,23,강남구,,,,,
4778,"서울특별시 성동구 뚝섬로1길 43, 성수문화복지회관 (성수동1가)",5층 사무실 앞,성수종합사회복지관,127.0469471,37.54542892,4,성동구,,,,,
5338,서울특별시 강동구 성안로25길 9,104동 관리사무소 안,천호삼성아파트(임대),127.1347123,37.53776419,25,강동구,,,,,
4718,"서울특별시 성동구 금호로 100 (임대) (금호동1가, 벽산아파트)",2층 관리사무소,금호벽산아파트(임대),127.0260929,37.55453185,4,성동구,,,,,
4213,서울특별시 마포구 마포대로 지하 100 5호선 공덕역,5호선 공덕역 지하1층대합실,서울시도시철도공사(5호선 공덕역),126.9513638,37.54452679,14,마포구,,,,,
4738,"서울특별시 성동구 독서당로 272 (임대) (금호동4가, 금호동 대우아파트)",금호대우아파트 관리사무소,금호대우아파트(임대),127.0179242,37.54532877,4,성동구,,,,,
4027,서울특별시 마포구 양화로 지하 45 6호선 합정역 (합정동),6호선합정역 지하3층대합실,서울교통공사(6호선합정역),126.9135446,37.54912268,14,마포구,,,,,
4711,"서울특별시 성동구 난계로 114-31(하왕십리동, 금호 베스트빌)",관리사무소,금호베스트빌제2아파트,127.0259504,37.5612317,4,성동구,,,,,
4717,"서울특별시 성동구 행당로 82 (임대) (행당동, 행당 한진타운)",행당한진아파트 관리동 입구,행당한진타운아파트(임대),127.0264147,37.5556328,4,성동구,,,,,
1772,"서울특별시 노원구 덕릉로70가길 101(상계동, 상계마들아파트)","(상계6,7동) 경비실",상계마들(임대),127.056822,37.64169149,11,노원구,,,,,
1786,"서울특별시 노원구 노원로 331(중계동, 시영3단지목련아파트)",(중계2.3동) 복지관건물 관리소,시영3단지목련(임대),127.0692333,37.6465254,11,노원구,,,,,
1621,"서울특별시 노원구 동일로250길 17(상계동, 은빛3단지아파트)",(상계1동) 관리사무소,은빛3단지(임대),127.056757,37.68278302,11,노원구,,,,,
1905,"서울특별시 노원구 월계로 372(월계동, 월계사슴1단지아파트)",(월계3동) 관리사무소,사슴1단지(임대),127.0601381,37.63004687,11,노원구,,,,,
1803,"서울특별시 노원구 화랑로 478, 다운복지관 (공릉동)",(공릉1동) 체력단련실 지하1층,다운복지관,127.08029,37.61895724,11,노원구,,,,,
2570,서울특별시 동대문구 약령중앙로 26  (제기동),1층 안내데스크 옆,서울한방진흥센터,127.0375866,37.58060041,6,동대문구,,,,,
4635,"서울특별시 중구 퇴계로8길 46, 회현동주민센터 (회현동1가)",1층 민원실 왼쪽 벽 부근,회현동주민센터,126.9793555,37.55728611,2,중구,,,,,
4606,"서울특별시 중구 장충단로8길 22, 장충동주민센터 (장충동1가)",민원실,장충동주민센터,127.0078413,37.56190823,2,중구,,,,,
8772,서울특별시 관악구 난곡로58길 13 1층 수영장 내부,신림체육센터 3층 헬스장,신림체육센터,126.916032,37.48007066,21,관악구,,,,,
4390,서울특별시 용산구 녹사평대로 150 용산구청 총무과,10층 구내식당,용산구청 총무과,126.9901796,37.53256075,3,용산구,,,,,
4597,"서울특별시 중구 다산로6길 11, 약수동 복지회관 (신당동)",3층 기능회복실 입구,약수노인종합복지관,127.0093304,37.55247063,2,중구,,,,,
4570,"서울특별시 중구 다산로 지하260, 신당역 6호선 (흥인동)",지하1층 개찰구 내 아이센터 옆,6호선 신당역,127.0161535,37.56627389,2,중구,,,,,
4571,서울특별시 중구 마장로5길 10-18(황학동),역무실 앞,2호선 신당역,127.0195406,37.56565403,2,중구,,,,,
4533,"서울특별시 중구 을지로 지하42, 을지로입구역 2호선 (을지로1가)",고객안전실 우측 20m,2호선 을지로입구역,126.9823729,37.56605095,2,중구,,,,,
4519,"서울특별시 중구 세종대로 지하 101, 시청역 1호선 (정동)",역무실 앞,1호선 시청역,126.9769832,37.56543852,2,중구,,,,,
4629,"서울특별시 중구 퇴계로 지하 126, 명동역 4호선 (충무로2가)",역무실 앞,4호선 명동역,126.985947,37.56091008,2,중구,,,,,
4566,서울특별시 중구 을지로 281 (을지로7가),역무실 앞,2호선 동대문역사문화공원역,127.0109091,37.56801422,2,중구,,,,,
4565,"서울특별시 중구 장충단로 지하 230, 동대문역사문화공원역 4호선 (광희동2가)",고객안전실 앞,4호선 동대문역사문화공원역,127.0075507,37.56507877,2,중구,,,,,
4560,"서울특별시 중구 마른내로 지하 162, 동대문역사문화공원역 5호선 (광희동1가)",역무실 앞,5호선 동대문역사문화공원역,127.0059162,37.56457701,2,중구,,,,,
4515,"서울특별시 중구 서소문로 지하 127, 시청역 2호선 (서소문동)",역무실 앞,시청역(2호선),126.9762422,37.56392704,2,중구,,,,,
4634,"서울특별시 중구 퇴계로 지하 54, 회현역 4호선 (남창동)",고객안전실 앞,4호선 회현역,126.9782391,37.55853532,2,중구,,,,,
4550,"서울특별시 중구 을지로 지하 106, 을지로3가역 2호선 (을지로3가)",역무실 앞,2호선 을지로3가역,126.9903084,37.56626595,2,중구,,,,,
4549,"서울특별시 중구 을지로 지하 129, 을지로3가역 3호선 (을지로3가)",역무실 앞,3호선 을지로3가역,126.99265,37.56627504,2,중구,,,,,
4597,서울특별시 중구 다산로 지하 122,역무실 앞,3호선 약수역,127.0108225,37.55455956,2,중구,,,,,
4598,서울특별시 중구 다산로 지하 115,지하 2층 엘리베이터 옆,6호선 약수역,127.0101205,37.55389144,2,중구,,,,,
4548,"서울특별시 중구 을지로 지하 178, 을지로4가역 2호선 (을지로4가)",역무실 앞,2호선 을지로4가역,126.9978528,37.56663699,2,중구,,,,,
4546,서울특별시 중구 창경궁로8길 2 (주교동),역무실 앞,을지로4가역(5호선),126.9981954,37.56843286,2,중구,,,,,
4617,"서울특별시 중구 동호로 지하 256, 동대입구역 3호선 (장충동2가)",역무실 앞,3호선 동대입구역,127.0054602,37.55903022,2,중구,,,,,
4608,"서울특별시 중구 청구로 지하77, 청구역 5,6호선 (신당동)",역무실 앞,"5,6호선 청구역",127.013808,37.5602931,2,중구,,,,,
4608,"서울특별시 중구 청구로 지하77, 청구역 5,6호선 (신당동)",역무실 앞,"5,6호선 청구역",127.013806,37.56029391,2,중구,,,,,
4595,"서울특별시 중구 다산로 지하 38, 버티고개역 6호선 (신당동)",B1층 i센터옆,6호선 버티고개역,127.0068852,37.547995,2,중구,,,,,
4588,서울특별시 중구 청구로1길 23,경비2초소,신당삼성아파트(분양),127.018448,37.55853733,2,중구,,,,,
4505,"서울특별시 중구 서소문로6길 21(중림동, 리하우스(LEEHAUS))",관리사무소,리하우스,126.9666325,37.55991429,2,중구,,,,,
2842,"서울특별시 성북구 고려대로 지하89, 안암역 (안암동5가)",지하2층 아이센터 맞은편,6호선 안암역,127.0292153,37.58627859,8,성북구,,,,,
2753,"서울특별시 성북구 장월로1길 28 (상월곡동, 동아에코빌아파트)",관리사무소,상월곡동아에코빌,127.0456142,37.60877294,8,성북구,,,,,
2043,"서울특별시 중랑구 봉화산로 179, 중랑구청 (신내동)",보건소 1층 민원실 앞,중랑구보건소의약과,127.0927252,37.60656494,7,중랑구,,,,,
2219,"서울특별시 중랑구 면목로 397, 면목본동 주민센터 (면목동)",면목본동 주민센터 민원실,면목본동주민센터,127.0874608,37.58727896,7,중랑구,,,,,
5748,서울특별시 송파구 성내천로47길 38 정문경비실,정문경비실,송파파크데일2단지,127.1578822,37.49629161,24,송파구,,,,,
5673,"서울특별시 송파구 오금로32길 31 (송파동, 래미안송파파인탑)",2층 관리사무소,래미안송파파인탑,127.1194907,37.50298385,24,송파구,,,,,
2130,"서울특별시 중랑구 동일로101길 20-15, 면목2동 주민센터 (면목동)",민원실,면목2동주민센터,127.078986,37.58977506,7,중랑구,,,,,
5813,서울특별시 송파구 송파대로8길 20 관리사무소 내부,관리사무소 내부,송파파인타운10단지,127.1305161,37.47756019,24,송파구,,,,,
2221,"서울특별시 중랑구 사가정로51길 48, 면목3,8동 주민센터 (면목동)",민원실,"면목3,8동주민센터",127.0880694,37.58295676,7,중랑구,,,,,
5813,서울특별시 송파구 송파대로8길 58 송파파인타운 11단지,관리사무소 1층,송파파인타운11단지,127.133188,37.479698,24,송파구,,,,,
2254,"서울특별시 중랑구 면목로 246, 면목4동 주민센터 (면목동)",민원실,면목4동주민센터,127.0856082,37.57470042,7,중랑구,,,,,
2231,"서울특별시 중랑구 동일로 619, 면목5동 복합청사 (면목동)",민원실,면목5동주민센터,127.0794754,37.5857545,7,중랑구,,,,,
2238,"서울특별시 중랑구 사가정로52길 13, 면목7동주민센터 5층 (면목동)",5층 민원실,면목7동주민센터,127.0874569,37.58008737,7,중랑구,,,,,
2091,"서울특별시 중랑구 상봉중앙로1길 6, 상봉1동 주민센터 (상봉동)",민원실앞,상봉1동주민센터,127.0872264,37.59985473,7,중랑구,,,,,
2139,"서울특별시 중랑구 동일로114길 10, 상봉2동 복합청사 (상봉동)",1층 주민센터내 통합민원창구 왼쪽,상봉2동주민센터,127.0808518,37.59289195,7,중랑구,,,,,
2088,"서울특별시 중랑구 동일로134길 17, 중화1동 주민센터 (중화동)",민원서식함옆,중화1동주민센터,127.0806853,37.60117595,7,중랑구,,,,,
2034,"서울특별시 중랑구 공릉로2가길 5, 묵1동 주민센터 (묵동)",출입구 벽면,묵1동주민센터,127.0784753,37.61236323,7,중랑구,,,,,
2008,"서울특별시 중랑구 중랑역로 181, 묵2동 문화체육 복합센터 (묵동)",민원실 내,묵2동주민센터,127.0783213,37.60595099,7,중랑구,,,,,
5670,서울특별시 송파구 가락로 192 송파한양2차아파트,관리소,송파한양2차아파트,127.1169125,37.50571648,24,송파구,,,,,
5670,서울특별시 송파구 가락로 192 송파한양2차아파트,남문초소,송파한양2차아파트,127.1170334,37.50531992,24,송파구,,,,,
2066,서울특별시 중랑구 망우로77길 12 (망우동),민원실,망우본동주민센터,127.1014872,37.60056074,7,중랑구,,,,,
2175,"서울특별시 중랑구 겸재로61길 40, 망우3동 주민센터 (망우동)",민원실,망우3동주민센터,127.0949182,37.59189966,7,중랑구,,,,,
2068,"서울특별시 중랑구 용마산로129나길 35, 신내1동 주민센터 (신내동)",민원실,신내1동주민센터,127.0995038,37.60586899,7,중랑구,,,,,
2076,"서울특별시 중랑구 봉화산로 190, 신내2동 관상복합청사 (신내동)",3층 민원실,신내2동주민센터,127.0942016,37.60626329,7,중랑구,,,,,
5699,서울특별시 송파구 양재대로 932 서울시농수산식품공사,가락몰 업무동 1층 안내데스크 앞,서울특별시농수산식품공사,127.1087136,37.49453769,24,송파구,,,,,
5531,서울특별시 송파구 풍성로26길 31,201동 1~4라인 좌측 E/L 옆 현관 출입구 1층,송파현대힐스테이트,127.1183046,37.53084983,24,송파구,,,,,
5531,서울특별시 송파구 풍성로26길 31,201동 5~8라인 좌측 E/L 옆 현관 출입구 1층,송파현대힐스테이트,127.1183046,37.53084983,24,송파구,,,,,
5531,서울특별시 송파구 풍성로26길 31,202동 1~4라인 우측 E/L 옆 현관 출입구 1층,송파현대힐스테이트,127.1183046,37.53084983,24,송파구,,,,,
5531,서울특별시 송파구 풍성로26길 31,202동 5~5라인 좌측 E/L 옆 현관 출입구 1층,송파현대힐스테이트,127.1183046,37.53084983,24,송파구,,,,,
3419,"서울특별시 은평구 연서로3나길 11-30, 역촌노인복지관 (역촌동)",3층 데이케어센터,역촌노인복지관,126.9113711,37.60334272,12,은평구,,,,,
4925,서울특별시 광진구 용마산로3길 62 .,1층 로비,중곡종합사회복지관,127.0848407,37.55668827,5,광진구,,,,,
3477,서울특별시 은평구 백련산로2길 42 212동 백련산힐스테이트제2관리사무소(임대),212동 관리사무실,백련산힐스테이트제2관리사무소(임대아파트관리,126.924251,37.58952805,12,은평구,,,,,
5092,"서울특별시 광진구 자양번영로 35, 자양3세대종합복지센터 (자양동)",4층 로비,자양종합사회복지관,127.0752337,37.53289841,5,광진구,,,,,
5072,서울특별시 광진구 아차산로30길 36 동부여성발전센터 (자양동),헬스장,동부여성발전센터,127.066775,37.53945295,5,광진구,,,,,
5072,서울특별시 광진구 아차산로30길 36 동부여성발전센터 (자양동),수영장,동부여성발전센터,127.0669389,37.53924113,5,광진구,,,,,
5047,"서울특별시 광진구 강변역로 17, 구의3동 복합청사 (구의동)",3층 자료실 내,구의3동도서관,127.091984,37.53799261,5,광진구,,,,,
5091,서울특별시 광진구 뚝섬로36길 9 .,1층 출입구 안,자양파출소(자양3동),127.0716162,37.53385815,5,광진구,,,,,
5024,서울특별시 광진구 자양로 167 광진경찰서 (구의동),2층 유치장 내,광진경찰서(경무계),127.0839022,37.54291142,5,광진구,,,,,
5856,서울특별시 송파구 법원로 101 서울동부지방법원,법정동 4층 410호법정 옆 복도,서울동부지방법원_법정동,127.1197516,37.48349446,24,송파구,,,,,
4968,서울특별시 광진구 아차산로 지하 571 .,지하2층 대합실 아이센터 우측 벽면,5호선 광나루역,127.1036865,37.54527866,5,광진구,,,,,
4954,서울특별시 광진구 천호대로 지하 657 .,지하2층 아이센터 옆,5호선 아차산역,127.0893706,37.55240114,5,광진구,,,,,
4908,서울특별시 광진구 능동로 지하 417 지하2층,중곡역 지하2층 아이센터 옆,7호선 중곡역,127.0840724,37.56552588,5,광진구,,,,,
3477,"서울특별시 은평구 백련산로 38 (응암동, 백련산 힐스테이트 2차)",203동 지하1층 관리사무소,백련산힐스테이트2차,126.9231069,37.58927729,12,은평구,,,,,
2261,"서울특별시 중랑구 사가정로72길 47, 중랑문화체육관 (면목동)",1층 안내데스크,중랑문화체육관,127.0957617,37.57941383,7,중랑구,,,,,
2076,"서울특별시 중랑구 봉화산로 190, 신내2동 관상복합청사 (신내동)",야간 경비실 앞,관상복합청사,127.0941744,37.60623223,7,중랑구,,,,,
2257,"서울특별시 중랑구 용마산로 228 (면목동, 도시개발아파트)",2층 경로식당 옆,면목도시개발아파트,127.0883012,37.57416749,7,중랑구,,,,,
2043,"서울특별시 중랑구 신내로 115 (신내동, 신내10단지신내아파트)",2층 관리사무소 앞 체력단련실 입구,신내10단지아파트,127.0949042,37.60929753,7,중랑구,,,,,
5540,서울특별시 송파구 양재대로 지하 1233 올림픽공원역,역무실 앞,5호선 올림픽공원역,127.1306001,37.51608765,24,송파구,,,,,
8634,"서울특별시 금천구 시흥대로51길 93-32, 금천노인종합복지관 (시흥동)",복지관1층,금천노인종합복지관,126.8977638,37.45013432,18,금천구,,,,,
8611,"서울특별시 금천구 시흥대로73길 70, 금천구청종합청사 (시흥동)",로비,금나래아트홀도서관,126.8960369,37.45706565,18,금천구,,,,,
8611,서울특별시 금천구 시흥대로73길 50 금천경찰서 (시흥동),1층 통합형사 사무실 안,서울금천경찰서,126.8967472,37.45725134,18,금천구,,,,,
8657,"서울특별시 금천구 탑골로2길 37, 백산지구대 (시흥동)",지구대 안,백산지구대,126.9125957,37.45104272,18,금천구,,,,,
8512,"서울특별시 금천구 벚꽃로56길 174, 가산파출소 (가산동)",파출소내,가산파출소,126.8880557,37.47993673,18,금천구,,,,,
8521,"서울특별시 금천구 두산로9길 56 (가산동, 가산삼익아파트)",관리사무소내,가산삼익아파트,126.8927411,37.47269327,18,금천구,,,,,
3300,"서울특별시 은평구 북한산로 2 (진관동, 은평뉴타운구파발)",1층 관리사무실,구파발10단지제3관리사무소,126.916236,37.64224351,12,은평구,,,,,
120806,서울특별시 서대문구 홍은중앙로1길 33 (홍은동) 유원아파트,1동  엘리베이터 앞,유원홍은아파트,126.9450846,37.59719441,13,서대문구,,,,,
4145,"서울특별시 마포구 마포대로 115-8, 101동 (공덕동, 공덕삼성아파트)","101동 3,4라인",공덕삼성아파트,126.9511647,37.5465526,14,마포구,,,,,
4145,서울특별시 마포구 마포대로 115-8,"102동 1,2라인",공덕삼성아파트,126.9511647,37.5465526,14,마포구,,,,,
4145,서울특별시 마포구 마포대로 115-8,"103동 1,2라인",공덕삼성아파트,126.9511647,37.5465526,14,마포구,,,,,
4145,서울특별시 마포구 마포대로 115-8,"104동 3,4,7라인",공덕삼성아파트,126.9511647,37.5465526,14,마포구,,,,,
4145,서울특별시 마포구 마포대로 115-8,"105동 7, 8라인",공덕삼성아파트,126.9511647,37.5465526,14,마포구,,,,,
110500,서울특별시 종로구 이화동,신관 2층 목욕탕,종로노인종합복지관,127.0060271,37.57673152,1,종로구,,,,,
3091,서울특별시 종로구 지봉로13길 82,4층 사무실 안,종로데이케어센터,127.0124889,37.57729684,1,종로구,,,,,
3147,"서울특별시 종로구 삼일대로 467, 2층 (경운동)",2층로비,서울노인복지센터,126.9858533,37.57596579,1,종로구,,,,,
3176,"서울특별시 종로구 경희궁1길 15, 세종로자치회관 (신문로2가)",입구,사직동주민센터,126.9688539,37.57606867,1,종로구,,,,,
3049,"서울특별시 종로구 삼청로 107, 삼청동주민센터 (삼청동)",입구,삼청동주민센터,126.9818567,37.58500537,1,종로구,,,,,
3022,"서울특별시 종로구 창의문로 145, 부암동주민센터 (부암동)",입구,부암동주민센터,126.963684,37.59226335,1,종로구,,,,,
3011,"서울특별시 종로구 평창문화로 48, 평창경로당 (평창동)",입구,평창동주민센터,126.9669041,37.60538219,1,종로구,,,,,
3030,"서울특별시 종로구 통일로14길 36, 무악동주민센터 (무악동)",입구,무악동주민센터,126.9581596,37.57600022,1,종로구,,,,,
3166,"서울특별시 종로구 송월길 154, 교남동주민센터 (행촌동)",입구,교남동주민센터,126.9619602,37.57191387,1,종로구,,,,,
3055,"서울특별시 종로구 북촌로 35, 가회동주민센터 (가회동)",입구,가회동주민센터,126.9847891,37.58005086,1,종로구,,,,,
3140,서울특별시 종로구 종로17길 8(종로2가),입구,"종로1,4가동주민센터",126.9902334,37.57449203,1,종로구,,,,,
3126,서울특별시 종로구 종로35가길 19,입구,"종로5,6가동주민센터",127.0050313,37.57206117,1,종로구,,,,,
3087,"서울특별시 종로구 이화장길 33, 이화동주민센터 (이화동)",입구,이화동주민센터,127.0048082,37.57647059,1,종로구,,,,,
3076,"서울특별시 종로구 혜화로 12, 혜화동주민센터 (혜화동)",입구,혜화동주민센터,127.0002111,37.5866713,1,종로구,,,,,
3118,"서울특별시 종로구 지봉로 8-6, 창신제1동주민센터 (창신동)",입구,창신1동주민센터,127.0163431,37.57071856,1,종로구,,,,,
3102,"서울특별시 종로구 창신길 62, 창신제2동주민센터 (창신동)",입구,창신2동주민센터,127.0104748,37.57424543,1,종로구,,,,,
3095,"서울특별시 종로구 지봉로 87(창신동, 창신3동주민센터)",입구,창신3동주민센터,127.0146803,37.57753455,1,종로구,,,,,
3104,"서울특별시 종로구 지봉로5길 7-5, 종로구구민회관, 보건소통합청 (창신동)",1층로비,종로구민회관,127.0127998,37.57572331,1,종로구,,,,,
3050,"서울특별시 종로구 북촌로 134-3, 삼청공원 (삼청동)",1층 관리사무실 내,삼청테니스장,126.9818017,37.59268145,1,종로구,,,,,
3066,서울특별시 종로구 성균관로 91  (혜화동),1층로비,올림픽기념국민생활관,126.9984278,37.590341,1,종로구,,,,,
3112,"서울특별시 종로구 종로65길 10, 숭인제2동주민센터 (숭인동)",주민센터 내,숭인2동주민센터,127.0199617,37.57487529,1,종로구,,,,,
6122,"서울특별시 강남구 봉은사로 139, 베스트웨스턴 강남호텔 (논현동)",1층 로비,베스트웨스턴프리미어강남호텔,127.0297865,37.50637768,23,강남구,,,,,
6329,"서울특별시 강남구 삼성로4길 17 (개포동, 주공아파트)",501동 A초소,개포주공5단지,127.0690369,37.48791603,23,강남구,,,,,
6329,"서울특별시 강남구 삼성로4길 17 (개포동, 주공아파트)",502동 A초소,개포주공5단지,127.0690369,37.48791603,23,강남구,,,,,
6329,"서울특별시 강남구 삼성로4길 17 (개포동, 주공아파트)",503동 A초소,개포주공5단지,127.0690369,37.48791603,23,강남구,,,,,
6329,"서울특별시 강남구 삼성로4길 17 (개포동, 주공아파트)",504동 A초소,개포주공5단지,127.0690369,37.48791603,23,강남구,,,,,
6329,"서울특별시 강남구 삼성로4길 17 (개포동, 주공아파트)",505동 A초소,개포주공5단지,127.0690369,37.48791603,23,강남구,,,,,
6329,"서울특별시 강남구 삼성로4길 17 (개포동, 주공아파트)",506동 A초소,개포주공5단지,127.0690369,37.48791603,23,강남구,,,,,
6279,"서울특별시 강남구 도곡로78길 22 (대치동, 대치삼성아파트)",경비실(4초소),대치삼성아파트,127.0588492,37.49663609,23,강남구,,,,,
4718,"서울특별시 성동구 금호로 100(금호동1가, 벽산아파트)",경비1초소,금호벽산아파트,127.0260929,37.55453185,4,성동구,,,,,
4718,"서울특별시 성동구 금호로 100(금호동1가, 벽산아파트)",경비2초소,금호벽산아파트,127.0260929,37.55453185,4,성동구,,,,,
4718,"서울특별시 성동구 금호로 100(금호동1가, 벽산아파트)",경비3초소,금호벽산아파트,127.0260929,37.55453185,4,성동구,,,,,
4718,"서울특별시 성동구 금호로 100(금호동1가, 벽산아파트)",경비4초소,금호벽산아파트,127.0260929,37.55453185,4,성동구,,,,,
4718,"서울특별시 성동구 금호로 100(금호동1가, 벽산아파트)",경비5초소,금호벽산아파트,127.0260929,37.55453185,4,성동구,,,,,
4718,"서울특별시 성동구 금호로 100(금호동1가, 벽산아파트)",경비6초소,금호벽산아파트,127.0260929,37.55453185,4,성동구,,,,,
4718,"서울특별시 성동구 금호로 100(금호동1가, 벽산아파트)",경비7초소,금호벽산아파트,127.0260929,37.55453185,4,성동구,,,,,
4718,"서울특별시 성동구 금호로 100(금호동1가, 벽산아파트)",경비8초소,금호벽산아파트,127.0260929,37.55453185,4,성동구,,,,,
4718,"서울특별시 성동구 금호로 100(금호동1가, 벽산아파트)",경비9초소,금호벽산아파트,127.0260929,37.55453185,4,성동구,,,,,
4718,"서울특별시 성동구 금호로 100(금호동1가, 벽산아파트)",경비10초소,금호벽산아파트,127.0260929,37.55453185,4,성동구,,,,,
4718,"서울특별시 성동구 금호로 100(금호동1가, 벽산아파트)",경비11초소,금호벽산아파트,127.0260929,37.55453185,4,성동구,,,,,
4718,"서울특별시 성동구 금호로 100(금호동1가, 벽산아파트)",경비12초소,금호벽산아파트,127.0260929,37.55453185,4,성동구,,,,,
4718,"서울특별시 성동구 금호로 100(금호동1가, 벽산아파트)",경비13초소,금호벽산아파트,127.0260929,37.55453185,4,성동구,,,,,
6048,"서울특별시 강남구 언주로 731, 나누리병원 (논현동)",1층,나누리병원,127.0339813,37.52030625,23,강남구,,,,,
6048,"서울특별시 강남구 언주로 731, 나누리병원 (논현동)",6층,나누리병원,127.0339813,37.52030625,23,강남구,,,,,
6048,"서울특별시 강남구 언주로 731, 나누리병원 (논현동)",7층,나누리병원,127.0339813,37.52030625,23,강남구,,,,,
4728,"서울특별시 성동구 금호로 107 (금호동2가, 래미안하이리버)",경로당 건물(어린이집 옆),래미안하이리버아파트,127.0242362,37.55227254,4,성동구,,,,,
6236,"서울특별시 강남구 테헤란로 152 (역삼동, 강남파이낸스센터)",19층,주식회사 지마켓,127.0365086,37.50002424,23,강남구,,,,,
4717,"서울특별시 성동구 행당로 82(행당동, 행당 한진타운)",1층 관리사무소 내(106동 옆),행당한진타운아파트,127.0274013,37.55480906,4,성동구,,,,,
4368,서울특별시 용산구 원효로 216,정문 경비실내,용산e편한세상,126.966224,37.53662885,3,용산구,,,,,
8090,"서울특별시 양천구 목동서로 400 관리동 (신정동, 목동신시가지아파트10단지)",관리동,목동아파트10단지,126.8586821,37.51740465,15,양천구,,,,,
7982,"서울특별시 양천구 목동서로 100 (목동, 목동신시가지아파트3단지)",관리사무소 입구 우측,목동신시가지아파트3단지,126.8719519,37.53448746,15,양천구,,,,,
8078,"서울특별시 양천구 신정로 293 (신정동, 신트리1단지아파트)",101동107동사이,신트리1단지,126.8530056,37.51329953,15,양천구,,,,,
1197,"서울특별시 강북구 삼양로27길 95 미아두산위브트레지움 (미아동, 두산위브트레지움아파트)",202동 L층 공동현관,미아두산위브트레지움,127.0164126,37.61845183,9,강북구,,,,,
1197,"서울특별시 강북구 삼양로27길 95 미아두산위브트레지움 (미아동, 두산위브트레지움아파트)",214동 1층 공동현관,미아두산위브트레지움,127.0164778,37.6179106,9,강북구,,,,,
1197,"서울특별시 강북구 삼양로27길 95 미아두산위브트레지움 (미아동, 두산위브트레지움아파트)",203동 L층 현관,미아두산위브트레지움,127.0157534,37.61835281,9,강북구,,,,,
1197,"서울특별시 강북구 삼양로27길 95 미아두산위브트레지움 (미아동, 두산위브트레지움아파트)",헬스장(사무실 입구 좌측아래벽),미아두산위브트레지움,127.0157534,37.61835281,9,강북구,,,,,
1197,"서울특별시 강북구 삼양로27길 95 미아두산위브트레지움 (미아동, 두산위브트레지움아파트)",301동 1층 공동현관,미아두산위브트레지움,127.0157534,37.61835281,9,강북구,,,,,
1197,"서울특별시 강북구 삼양로27길 95 미아두산위브트레지움 (미아동, 두산위브트레지움아파트)",306동 L층 공동현관,미아두산위브트레지움,127.0159139,37.6165846,9,강북구,,,,,
2789,서울특별시 성북구 화랑로32길 146-37 (석관동),천장관 1층 건강진료실 앞,한국예술종합학교,127.0539389,37.60635838,8,성북구,,,,,
2841,서울특별시 성북구 안암로 145 (안암동5가),중앙광장 1층 건강센터 내,고려대학교,127.0309816,37.58649077,8,성북구,,,,,
6718,"서울특별시 서초구 서초중앙로 15 (서초동, 현대슈퍼빌)",D동로비,현대슈퍼빌,127.0156435,37.48301206,22,서초구,,,,,
8291,"서울특별시 구로구 새말로 31 (구로동, 신도림롯데아파트)",경비실 정문,신도림롯데아파트,126.8842089,37.50349931,17,구로구,,,,,
8291,"서울특별시 구로구 새말로 31 (구로동, 신도림롯데아파트)",경비실 후문,신도림롯데아파트,126.8842089,37.50349931,17,구로구,,,,,
8291,"서울특별시 구로구 새말로 31 (구로동, 신도림롯데아파트)",정문앞,신도림롯데아파트,126.8848249,37.504381,17,구로구,,,,,
4734,"서울특별시 성동구 독서당로 218(옥수동, 옥수삼성아파트)",108동 앞 1층 상황실,옥수삼성아파트,127.0155564,37.54262971,4,성동구,,,,,
8291,"서울특별시 구로구 새말로 31 (구로동, 신도림롯데아파트)",110동 옆 어린이놀이터 휴게 파고라,신도림롯데아파트,126.8842089,37.50349931,17,구로구,,,,,
8291,"서울특별시 구로구 새말로 31 (구로동, 신도림롯데아파트)",노인정,신도림롯데아파트,126.8842089,37.50349931,17,구로구,,,,,
8240,"서울특별시 구로구 중앙로 121  (고척동, 고척파크푸르지오)",정문 경비초소,고척파크푸르지오아파트,126.8579863,37.50887105,17,구로구,,,,,
8257,"서울특별시 구로구 오리로 1265 (궁동, 우신빌라)",관리사무소 입구,우신빌라,126.827395,37.50096534,17,구로구,,,,,
8205,"서울특별시 구로구 신도림로11가길 36  (신도림동, 미성아파트)",관리사무소 앞,신도림미성아파트,127.0198218,37.51566081,17,구로구,,,,,
1742,"서울특별시 노원구 중계로 233(중계동, 청구3차아파트)","(중계1동) 101동 3,4라인 입구",중계청구3차아파트,127.0737352,37.65005452,11,노원구,,,,,
1742,"서울특별시 노원구 중계로 233(중계동, 청구3차아파트)","(중계1동) 102동 3,4라인 입구",중계청구3차아파트,127.074653,37.64999989,11,노원구,,,,,
4991,서울특별시 광진구 능동로 지하 210 .,대합실 지하 2층 카드게이트 벽면건대입구 방향,7호선 어린이대공원역,127.0745499,37.5478712,5,광진구,,,,,
5096,서울특별시 광진구 능동로 10 .,대합실 문 안쪽 벽면,뚝섬유원지역,127.0667193,37.53158725,5,광진구,,,,,
4515,"서울특별시 중구 덕수궁길 61, 서울시립미술관 (서소문동)",1층 안내데스크,서울시립미술관,126.975615,37.56455491,2,중구,,,,,
4320,서울특별시 용산구 한강대로 405,3층 매표소,한국철도공사 서울역,126.9710695,37.55239402,3,용산구,,,,,
4320,서울특별시 용산구 한강대로 405,1~2번 경의선 승강장,한국철도공사 서울역,126.9710695,37.55239402,3,용산구,,,,,
4320,서울특별시 용산구 한강대로 405,9~10번 승강장,한국철도공사 서울역,126.9710695,37.55239402,3,용산구,,,,,
4320,서울특별시 용산구 한강대로 405,11~12번 승강장,한국철도공사 서울역,126.9710695,37.55239402,3,용산구,,,,,
4320,서울특별시 용산구 한강대로 405,13~14번 승강장,한국철도공사 서울역,126.9710695,37.55239402,3,용산구,,,,,
7987,"서울특별시 양천구 목동동로 350 (목동, 목동신시가지아파트5단지)",1층 관리사무소,목동신시가지아파트5단지,126.8813162,37.53349538,15,양천구,,,,,
7980,"서울특별시 양천구 목동서로 38 (목동, 목동신시가지아파트1단지)",120동 A라인,목동신시가지아파트1단지,126.8793718,37.53905966,15,양천구,,,,,
7980,"서울특별시 양천구 목동서로 38 (목동, 목동신시가지아파트1단지)",관리사무소(2층),목동신시가지아파트1단지,126.8793357,37.53909855,15,양천구,,,,,
7980,"서울특별시 양천구 목동서로 38 (목동, 목동신시가지아파트1단지)",132동 A라인,목동신시가지아파트1단지,126.8793375,37.539603,15,양천구,,,,,
1228,서울특별시 강북구 월계로 173 북서울꿈의숲,라포레스타 내,북서울꿈의숲아트센터,127.0400891,37.62256782,9,강북구,,,,,
3108,"서울특별시 종로구 지봉로 86, 숭인제1동주민센터 (숭인동)",주민센터 내,숭인1동주민센터,127.0156317,37.57782985,1,종로구,,,,,
3154,"서울특별시 종로구 세종대로 지하 172, 5호선 광화문역 (세종로)",역무실 앞,5호선 광화문역,126.9767899,37.57162255,1,종로구,,,,,
6591,서울특별시 서초구 반포대로 222 별관1층,별관1층,서울성모병원,127.0058606,37.50239362,22,서초구,,,,,
6591,서울특별시 서초구 반포대로 222 본관1층,본관1층 (약제부),서울성모병원,127.0058606,37.50239362,22,서초구,,,,,
6504,서울특별시 서초구 신반포로15길 6(반포동),1층 로비 대형 스크린옆,덜위치칼리지서울영국학교,126.9953408,37.50429038,22,서초구,,,,,
6758,서울특별시 서초구 남부순환로 2248 관리동 1층 로비,관리동 1층로비,서울시교육연수원,126.997115,37.4721613,22,서초구,,,,,
6758,서울특별시 서초구 남부순환로 2248 1층 로비,교육동 1층 로비,서울시교육연수원,126.997115,37.4721613,22,서초구,,,,,
2798,"서울특별시 성북구 종암로24가길 53 (종암동, 에스케이아파트)",관리사무소,종암동SK아파트,127.0379633,37.60083973,8,성북구,,,,,
3709,"서울특별시 서대문구 수색로6길 43 (남가좌동, 래미안남가좌2차아파트)",관리사무소 안,남가좌래미안2차아파트,126.9126561,37.57198896,13,서대문구,,,,,
5393,서울특별시 강동구 풍성로 128,204동2,성내삼성아파트,127.1259824,37.52994233,25,강동구,,,,,
5393,"서울특별시 강동구 풍성로 128 (성내동, 성내동삼성아파트)",104동1,성내삼성아파트,127.1259824,37.52994233,25,강동구,,,,,
5393,"서울특별시 강동구 풍성로 128 (성내동, 성내동삼성아파트)",301동1,성내삼성아파트,127.1259824,37.52994233,25,강동구,,,,,
5393,"서울특별시 강동구 풍성로 128 (성내동, 성내동삼성아파트)",205동2,성내삼성아파트,127.1259824,37.52994233,25,강동구,,,,,
5393,"서울특별시 강동구 풍성로 128 (성내동, 성내동삼성아파트)",102동1,성내삼성아파트,127.1259824,37.52994233,25,강동구,,,,,
5393,"서울특별시 강동구 풍성로 128 (성내동, 성내동삼성아파트)",203동2,성내삼성아파트,127.1259824,37.52994233,25,강동구,,,,,
5393,"서울특별시 강동구 풍성로 128 (성내동, 성내동삼성아파트)",202동2,성내삼성아파트,127.1259824,37.52994233,25,강동구,,,,,
5393,"서울특별시 강동구 풍성로 128 (성내동, 성내동삼성아파트)",101동1,성내삼성아파트,127.1259824,37.52994233,25,강동구,,,,,
5393,"서울특별시 강동구 풍성로 128 (성내동, 성내동삼성아파트)",201동3,성내삼성아파트,127.1259824,37.52994233,25,강동구,,,,,
5394,서울특별시 강동구 풍성로 136,103동1,성내삼성아파트,127.1259824,37.52994233,25,강동구,,,,,
5230,"서울특별시 강동구 양재대로 1706 (고덕동, 아남아파트)","1동 3,4라인",고덕아남아파트,127.1462746,37.55794,25,강동구,,,,,
4587,"서울특별시 중구 청구로 64(신당동, 청구 e편한세상)",관리사무소 입구(분양동),청구이편한세상,127.0167327,37.56044769,2,중구,,,,,
3114,서울특별시 종로구 종로58길 30,보건실입구 복도,서울다솜관광고등학교,127.0174145,37.57211009,1,종로구,,,,,
7305,서울특별시 영등포구 영중로 15 영등포 CGV,영등포 CGV 1관 앞,CGV영등포,126.903716,37.51723326,19,영등포구,,,,,
4518,서울특별시 중구 정동길 25,"본관1층 중앙현관 , 신관 2층 현관",예원학교,126.9717634,37.56673149,2,중구,,,,,
4564,"서울특별시 중구 을지로 245, 국립중앙의료원 (을지로6가)",장례식장,국립중앙의료원,127.0059171,37.5680153,2,중구,,,,,
4564,"서울특별시 중구 을지로 245, 국립중앙의료원 (을지로6가)",본관1층 로비,국립중앙의료원,127.0057501,37.5671053,2,중구,,,,,
4569,서울특별시 중구 퇴계로 387,1층 공연장 안내데스크,충무아트센터(중구문화재단),127.0148593,37.56593042,2,중구,,,,,
4577,"서울특별시 중구 다산로 248, 신당파출소 (신당동)",파출소내,서울중부경찰서 신당파출소,127.016385,37.56504427,2,중구,,,,,
4626,서울특별시 중구 퇴계로34길 28 (전통가옥관리소),정문관리소 관리사무소 내,남산골한옥마을(정문관리소),126.9946802,37.55954623,2,중구,,,,,
4626,서울특별시 중구 퇴계로34길 28 (전통가옥관리소),전통가옥관리소,남산골한옥마을(전통가옥관리소),126.9946802,37.55954623,2,중구,,,,,
4549,"서울특별시 중구 충무로 56-1, 을지로3가파출소 (을지로3가)",1층 사무실 안쪽,서울중부경찰서 을지로3가파출소,126.9932785,37.5661993,2,중구,,,,,
7217,서울특별시 영등포구 당산로41길 23 당산4가현대3차아파트,정문경비실,당산4가현대3차아파트,126.8966598,37.53203391,19,영등포구,,,,,
4377,서울특별시 용산구 한강대로23길 55 CGV 용산,6층 로비,CGV용산,126.9647415,37.5297718,3,용산구,,,,,
4548,"서울특별시 중구 마른내로9길 10, 덕수중학교 (인현동2가)",1층 중앙현관,덕수중학교,126.9969973,37.56557957,2,중구,,,,,
2748,서울특별시 성북구 화랑로13길 60 (하월곡동),1층 학생관 로비,동덕여자대학교,127.0427635,37.60661524,8,성북구,,,,,
2748,서울특별시 성북구 화랑로13길 60 (하월곡동),대학원 2층 대강의실 입구,동덕여자대학교,127.0417897,37.60693994,8,성북구,,,,,
1861,서울특별시 노원구 동일로 989 (공릉동),2층 응급처치실 입구 안쪽,방병원,127.0706419,37.62850946,11,노원구,,,,,
1688,서울특별시 노원구 동일로 1449 (상계동),(상계10동) 본관1층 수유실 입구 오른쪽,도로교통공단도봉운전면허시험장,127.0581603,37.65791079,11,노원구,,,,,
8109,"서울특별시 양천구 신정로14길 6 (신정동, 학마을아파트)",관리사무소 1층,학마을1단지관리사무소,126.8444117,37.50853526,15,양천구,,,,,
6714,"서울특별시 서초구 남부순환로 2311-12(방배동, 래미안방배아트힐)",관리사무소,래미안방배아트힐아파트,127.0046579,37.47693299,22,서초구,,,,,
6601,서울특별시 서초구 서초중앙로 200,관리사무소,삼풍아파트,127.0154753,37.50042675,22,서초구,,,,,
6602,"서울특별시 서초구 서초대로65길 13-10(서초동, 서초래미안아파트)",지원센터 내,서초래미안아파트,127.0191522,37.49742766,22,서초구,,,,,
6802,"서울특별시 서초구 청계산로9길 1-12  (신원동, 서초포레스타6단지)",노인정앞,서초포레스타6단지,127.0562402,37.44968392,22,서초구,,,,,
6603,서울특별시 서초구 서초중앙로24길 43 103동 앞,103동 앞,유원서초아파트,127.0185954,37.49588883,22,서초구,,,,,
6617,서울특별시 서초구 서초대로 385 단지내 사거리,단지내 사거리,진흥아파트,127.0220699,37.49787045,22,서초구,,,,,
6608,"서울특별시 서초구 서운로 197 (서초동, 롯데캐슬클래식아파트)",관리사무소,롯데캐슬클래식아파트,127.0208219,37.49948168,22,서초구,,,,,
6547,서울특별시 서초구 반포대로 275 인포앞,커뮤니티 인포메이션 앞,래미안퍼스티지,127.0000961,37.50339568,22,서초구,,,,,
6617,서울특별시 서초구 서운로21길 2 보건실,보건실,서일중학교,127.0222106,37.49933005,22,서초구,,,,,
6548,서울특별시 서초구 신반포로 56-7,중앙현관앞,세화여자중학교,126.9942662,37.50189987,22,서초구,,,,,
6689,"서울특별시 서초구 방배중앙로3길 32, 이수중학교 (방배동)",1층 중앙현관 좌측 재난물품보관함 위,이수중학교,126.989859,37.48063003,22,서초구,,,,,
6700,"서울특별시 서초구 효령로2길 123-5, 동덕여자중고등학교 (방배동)",1층 보건실 입구,동덕여자고등학교,126.991995,37.47587863,22,서초구,,,,,
6544,"서울특별시 서초구 사평대로45길 10, 원촌중학교 (반포동)",보건실,원촌중학교,127.0138773,37.50623303,22,서초구,,,,,
6510,"서울특별시 서초구 잠원로3길 28, 반원초등학교 (잠원동)",본관중앙현관,반원초등학교,126.99691,37.50839982,22,서초구,,,,,
6565,"서울특별시 서초구 동광로12길 84, 서문여자중고등학교 (방배동)",보건실,서문여자중학교,126.9845458,37.48891973,22,서초구,,,,,
6780,서울특별시 서초구 언남길 8 보건실,1층보건실,매헌초등학교,127.0420577,37.47126365,22,서초구,,,,,
6639,서울특별시 서초구 서초중앙로 96 교대부설초등학교,보건실 앞 복도,서울교대부설초등학교,127.0176896,37.49084333,22,서초구,,,,,
6521,"서울특별시 서초구 신반포로33길 39, 경원중학교 (잠원동)",본관건물 정문 1층,경원중학교,127.0090183,37.5115816,22,서초구,,,,,
6656,서울특별시 서초구 반포대로27길 29 중앙현관,중앙현관앞,서초고등학교,127.0053782,37.48961169,22,서초구,,,,,
6762,"서울특별시 서초구 바우뫼로7길 38, 우면초등학교 (우면동)",1층 보건실 입구,우면초등학교,127.0237693,37.46470939,22,서초구,,,,,
6590,서울특별시 서초구 반포대로 179,본관 1층 유치장,서초경찰서,127.0051613,37.49574323,22,서초구,,,,,
6677,"서울특별시 서초구 방배천로 54, 서울방배경찰서 (방배동)",현관안내현관근무자 옆,방배경찰서,126.9832878,37.49468961,22,서초구,,,,,
6643,서울특별시 서초구 효령로 297 서초파출소,1층 소내 입구,서초파출소,127.0167385,37.48528606,22,서초구,,,,,
7525,서울특별시 강서구 허준로 139 정문사무실,정문경비실,가양강변아파트,126.8562794,37.5646105,16,강서구,,,,,
4561,"서울특별시 중구 을지로 234, 을지지구대 (을지로5가)",1층 내부 출입구 좌측,서울중부경찰서 을지지구대,127.003939,37.56647107,2,중구,,,,,
100866,서울특별시 중구 퇴계로 178,1층 출입구 옆 사무실 안쪽,서울중부경찰서 충무파출소,126.9915846,37.56087736,2,중구,,,,,
7691,서울특별시 강서구 강서로 266 관리동앞,관리사무소 옆 상황실,우장산아이파크e편한세상아파트,126.8409796,37.54826122,16,강서구,,,,,
5673,서울특별시 송파구 오금로32길 5 가락삼익맨숀,정문초소 내,가락삼익맨숀,127.1211522,37.50528666,24,송파구,,,,,
7524,서울특별시 강서구 강서로 532 관리사무소,관리사무소,동신대아아파트,126.8437685,37.57238101,16,강서구,,,,,
7671,서울특별시 강서구 등촌로 163 관리사무실,관리사무소,등촌아이파크아파트,126.8609767,37.54388599,16,강서구,,,,,
4607,서울특별시 중구 동호로14길 18 다산치안센터,1층 소내 입구,다산치안센터,127.0108376,37.55638669,2,중구,,,,,
7648,서울특별시 강서구 공항대로 382 관리사무실,방재실,우장산롯데캐슬아파트,126.8495455,37.55639584,16,강서구,,,,,
4713,"서울특별시 성동구 행당로 79 (행당동, 행당동 대림아파트)",관리사무소 2층,행당대림아파트,127.027507,37.55820535,4,성동구,,,,,
3941,서울특별시 마포구 월드컵북로38길 26 신북초등학교,본관 중앙 현관,서울신북초등학교,126.9053603,37.57110496,14,마포구,,,,,
4127,서울특별시 마포구 숭문길 106,관리동 기전실 내부,염리동상록아파트,126.9467959,37.55092488,14,마포구,,,,,
4154,서울특별시 마포구 독막로42길 2,생활지원센터1층,마포자이아파트,126.9451832,37.543328,14,마포구,,,,,
4204,서울특별시 마포구 마포대로20길 26,경비실뒤 감시실,삼성래미안공덕2차,126.9596131,37.55102475,14,마포구,,,,,
4131,서울특별시 마포구 마포대로 173-15,A블럭관리사무소내,공덕5차래미안아파트,126.9521805,37.55073725,14,마포구,,,,,
4142,서울특별시 마포구 마포대로7길 22,중문 보안실,삼성래미안공덕3차아파트,126.951915,37.54829724,14,마포구,,,,,
3303,서울특별시 은평구 진관4로 48-25,1층 소내,상림치안센터,126.928943,37.64421689,12,은평구,,,,,
3311,"서울특별시 은평구 진관1로 21-10 (진관동, 은평뉴타운 박석고개)",관리실 안 입구,은평뉴타운박석고개1단지,126.919399,37.63427019,12,은평구,,,,,
3076,"서울특별시 종로구 창경궁로 279, 혜화파출소 (혜화동)",1층 소내 책상 뒤쪽,혜화파출소,127.0014075,37.5861084,1,종로구,,,,,
3191,"서울특별시 종로구 삼일대로 386, 시네코아 (관철동)",파출소 내,관수파출소,126.9881147,37.56883115,1,종로구,,,,,
3130,"서울특별시 종로구 창경궁로 112-16, 서울혜화경찰서 (인의동)",경찰서 1층 입구,혜화경찰서,126.9988499,37.5720465,1,종로구,,,,,
3035,"서울특별시 종로구 자하문로17길 24, 옥인파출소 (옥인동)",파출소 내,옥인파출소,126.969428,37.58147415,1,종로구,,,,,
8611,서울특별시 금천구 시흥대로73길 50 금천경찰서 (시흥동),본관 3층 경무계,서울금천경찰서,126.8967472,37.45725134,18,금천구,,,,,
3125,"서울특별시 종로구 종로41나길 24-6, 서울혜화경찰서 효제파출소 (종로6가)",효제파출소 1층 출입문 옆,효제파출소,127.0048665,37.57294307,1,종로구,,,,,
3088,"서울특별시 종로구 이화장2길 33, 대학로파출소 (동숭동)",1층 소내 조사실 입구,혜화경찰서 대학로파출소,127.0060453,37.57861171,1,종로구,,,,,
3140,서울특별시 종로구 종로17길 8(종로2가),파출소 내,종로2가지구대,126.9889229,37.57050222,1,종로구,,,,,
6902,"서울특별시 동작구 노량진로23가길 23(본동, 래미안 트윈파크)",커뮤니티센터,래미안트윈파크아파트,126.9505426,37.5139718,20,동작구,,,,,
8638,"서울특별시 금천구 시흥대로37길 18, 금천시설관리공단, 시흥3 치안센터 (시흥동)",출입문 옆,시흥3치안센터,126.9026526,37.44588701,18,금천구,,,,,
4528,"서울특별시 중구 남대문시장4길 28-16, 남대문파출소 (남창동)",1층 소내입구,남대문파출소,126.9762414,37.55942296,2,중구,,,,,
8613,"서울특별시 금천구 시흥대로73길 11 (시흥동, 무지개아파트)",관리사무소,남서울무지개아파트,126.8983008,37.45661658,18,금천구,,,,,
8563,"서울특별시 금천구 독산로50길 89 (시흥동, 삼익아파트)",중앙경비실,시흥삼익아파트,126.9091244,37.4637578,18,금천구,,,,,
3000,"서울특별시 종로구 비봉길 13, 구기치안센터 (구기동)",치안센터 소재,구기치안센터,126.9592885,37.60673129,1,종로구,,,,,
3366,"서울특별시 은평구 불광로2길 33(불광동, 북한산힐스테이트1차아파트)","관리실 (3,4동 사이)내",북한산힐스테이트1차,126.9355822,37.61275736,12,은평구,,,,,
8598,"서울특별시 금천구 한내로 69-17, 독산1동분소, 신독산 치안센터 (독산동)",출입문 옆,신독산치안센터,126.8877829,37.45794127,18,금천구,,,,,
8350,서울특별시 구로구 오리로 1100 천왕파출소 (천왕동),1층 사무실 관리반 자리 뒤쪽,천왕파출소,126.842568,37.48385247,17,구로구,,,,,
2848,서울특별시 성북구 보문로 170 (삼선동5가),1층 통합당직실,성북경찰서,126.998472,37.59327273,8,성북구,,,,,
3357,"서울특별시 은평구 통일로 796 (불광동, 북한산 힐스테이트7차)",104동 관리실 안 입구,북한산힐스테이트7차,126.9257567,37.61634473,12,은평구,,,,,
2875,"서울특별시 성북구 보문로29다길 31 (삼선동2가, 삼선푸르지오)",정문경비실,삼선푸르지오,127.0126169,37.58417681,8,성북구,,,,,
2721,"서울특별시 성북구 길음로9길 40 (길음동, 래미안길음1차)",관리사무소,길음래미안1단지아파트,127.0209874,37.60584987,8,성북구,,,,,
2790,"서울특별시 성북구 화랑로 214 (석관동, 래미안석관)",정문초소내,래미안석관아파트,127.0548651,37.60915823,8,성북구,,,,,
2702,"서울특별시 성북구 보국문로 116 (정릉동, 정릉힐스테이트3차)",관리사무소,정릉힐스테이트3차아파트,127.0077019,37.61514249,8,성북구,,,,,
2063,"서울특별시 중랑구 양원역로 18(망우동, 중랑숲금호어울림)",108동 1층 출입문,중랑숲금호어울림아파트,127.1092716,37.60221882,7,중랑구,,,,,
2258,"서울특별시 중랑구 용마산로 252 (면목동, 면목현대아파트)",경로당 출입구,면목현대아파트,127.089785,37.57625784,7,중랑구,,,,,
4314,서울특별시 용산구 원효로97길 33-4,본관1층 보건실 앞,선린중학교,126.9660387,37.54276984,3,용산구,,,,,
4597,"서울특별시 중구 다산로 78, 송도병원 (신당동)",신관 7층,서울송도병원,127.0083817,37.5511666,2,중구,,,,,
4521,서울특별시 중구 청계천로 40 (다동) 한국관광공사,2층 K스타일허브,한국관광공사,126.981622,37.56855642,2,중구,,,,,
4526,"서울특별시 중구 세종대로 64, 해남빌딩 2층 (태평로2가)",인포데스크 앞,스포짐(시청점),126.9766963,37.56197332,2,중구,,,,,
3115,"서울특별시 종로구 난계로27길 84, 동묘공원 (숭인동)",공원안내소,동묘공원,127.0182462,37.57314466,1,종로구,,,,,
3045,"서울특별시 종로구 효자로 12, 국립고궁박물관 (세종로)",박물관 2층 접수대 옆,국립고궁박물관,126.9748061,37.57660825,1,종로구,,,,,
3104,"서울특별시 종로구 지봉로5길 7-5, 종로구구민회관, 보건소통합청 (창신동)",3층 헬스장,종로구민회관,127.0144761,37.57347279,1,종로구,,,,,
2830,서울특별시 성북구 아리랑로3길 8 (동소문동6가),1층 로비 입구,성북구동선보건지소,127.0157527,37.59360802,8,성북구,,,,,
2740,서울특별시 성북구 화랑로 35 (하월곡동),2층 민원실,국민건강보험공단성북지사,127.0359487,37.60310365,8,성북구,,,,,
2748,서울특별시 성북구 화랑로13길 60 (하월곡동),목화관 1층 행정실 앞,동덕여자대학교,127.0440322,37.60704725,8,성북구,,,,,
3172,"서울특별시 종로구 세종대로 지하 175, 세종이야기 (세종로)",M씨어터출입문,세종문화회관,126.9768172,37.57218604,1,종로구,,,,,
3027,"서울특별시 종로구 사직로9길 7, 어린이도서관 (사직동)",어린이도서관 1층 로비,서울특별시어린이도서관,126.9679799,37.57649397,1,종로구,,,,,
4631,"서울특별시 중구 소공로 48, 우리금융디지털타워 16층 (회현동2가)",1층 만화의집,서울경제진흥원서울애니메이션센터,126.983074,37.5598231,2,중구,,,,,
2446,서울특별시 동대문구 회기로 196 (휘경동 317-101) 회기역 역사 내,고객지원실 출입구 앞,회기역망우역사,127.0580354,37.58974424,6,동대문구,,,,,
2254,"서울특별시 중랑구 면목로 242, 중랑등기소 (면목동)",2층 분소 상담소앞,중랑구치매안심센터,127.085347,37.57442509,7,중랑구,,,,,
2052,"서울특별시 중랑구 신내로 194, 신내노인요양원 (신내동)",1층 출입문 로비 좌측 통로 벽면,신내노인요양원,127.0949662,37.61619292,7,중랑구,,,,,
2043,"서울특별시 중랑구 신내로 115 (신내동, 신내10단지신내아파트)",출입구안내데스크 앞,서울시립종합사회복지관,127.094491,37.60900995,7,중랑구,,,,,
1623,"서울특별시 노원구 동일로248길 30, 홍파복지원 (상계동)",상계1동 2층 의무실 앞,쉼터요양원,127.0569292,37.68048373,11,노원구,,,,,
1736,"서울특별시 노원구 중계로 163, 더 홈 (중계동)",1층 로비  출입구 좌측,늘편한집,127.0807062,37.64983949,11,노원구,,,,,
1830,"서울특별시 노원구 한글비석로 68, 을지병원 (하계동)",1층 로비안내쪽,을지병원,127.0695917,37.63655985,11,노원구,,,,,
1095,서울특별시 강북구 화계사길 63,체육관동 3층 보건실 내,화계중학교,127.0097091,37.63251806,9,강북구,,,,,
1189,서울특별시 강북구 솔샘로 239 (미아동),3층 복도,더캠프빌딩,127.0194424,37.62004297,9,강북구,,,,,
4781,"서울특별시 성동구 성수일로 34, 경동초등학교 (성수동1가)",1층 보건실 앞 복도,서울경동초등학교,127.0500737,37.54382386,4,성동구,,,,,
4780,"서울특별시 성동구 뚝섬로 365, 성수공업고등학교 (성수동2가)",보건실,성수공업고등학교,127.0512981,37.54054009,4,성동구,,,,,
4770,"서울특별시 성동구 뚝섬로 273, 서울숲공원 (성수동1가)",방문자센터 1층,서울숲공원관리사무소,127.0418077,37.54290323,4,성동구,,,,,
4768,"서울특별시 성동구 서울숲길 18, 성수중,고등학교 (성수동1가)",본관1층 현관,성수고등학교,127.0382534,37.54734181,4,성동구,,,,,
5030,"서울특별시 광진구 능동로 110, 영존빌딩 (화양동)",A동 4층,스타시티영존빌딩,127.0714119,37.54065938,5,광진구,,,,,
5116,서울특별시 광진구 광나루로56길 85 .,지하1층 안내데스크,테크노마트(강변점),127.0956923,37.53572635,5,광진구,,,,,
5065,"서울특별시 광진구 아차산로 262 (자양동, 더샵스타시티)",1층 하행 에스컬레이터 앞,스타시티몰,127.0731929,37.538413,5,광진구,,,,,
5065,"서울특별시 광진구 능동로 90, 더 클래식500 (자양동)","B1F 스파,골프 프런트 왼쪽 벽면",더클래식500,127.0707904,37.53802704,5,광진구,,,,,
5065,"서울특별시 광진구 아차산로 262 (자양동, 더샵스타시티)",지하1층 이마트 카트보관소 옆,스타시티몰,127.0729628,37.53700164,5,광진구,,,,,
5065,"서울특별시 광진구 능동로 90, 더 클래식500 (자양동)",30F 피난안전실 내부,더클래식500,127.0707792,37.53807209,5,광진구,,,,,
5030,"서울특별시 광진구 능동로 110, 영존빌딩 (화양동)",아트홀,스타시티영존빌딩,127.0714119,37.54065938,5,광진구,,,,,
4742,"서울특별시 성동구 독서당로62길 46, 광희중학교 (응봉동)",1층 보건실 입구,광희중학교,127.0338297,37.55025339,4,성동구,,,,,
4731,"서울특별시 성동구 동호로5길 131, 서울방송고등학교 (옥수동)",2층 출입문 새뜰반 입구,서울동호초등학교,127.0098797,37.54629208,4,성동구,,,,,
5116,서울특별시 광진구 광나루로56길 85 .,1층 안내데스크,테크노마트(강변점),127.0956923,37.53572635,5,광진구,,,,,
7588,서울특별시 강서구 화곡로63가길 18 관리동 복도벽,관리동 복도벽,등촌주공6단지아파트,126.8484064,37.56000558,16,강서구,,,,,
7580,서울특별시 강서구 강서로56나길 110 관리사무실,정문초소내,등촌부영아파트,126.8428388,37.56351515,16,강서구,,,,,
6336,"서울특별시 강남구 개포로 617, 서울수서경찰서 (개포동)",112종합상황실 내 출입문 옆,수서경찰서,127.0771431,37.49354772,23,강남구,,,,,
6359,"서울특별시 강남구 광평로10길 6 (일원동, 한솔마을아파트)",관리사무소 안,한솔아파트,127.0765213,37.48262791,23,강남구,,,,,
6337,"서울특별시 강남구 개포로110길 15 (일원동, 우성7차아파트)",관리사무소,개포7차우성아파트,127.0791149,37.49324368,23,강남구,,,,,
135939,서울특별시 강남구 개포로 617,유치장안,수서경찰서,127.0771437,37.4935488,23,강남구,,,,,
6356,"서울특별시 강남구 일원로14길 25 (일원동, 푸른마을아파트)",정문경비실,푸른마을아파트,127.0811005,37.48479809,23,강남구,,,,,
6053,"서울특별시 강남구 학동로 227, 논현2파출소 (논현동)",1층 사무실 옆쪽,강남경찰서 논현2파출소,127.0338464,37.51520381,23,강남구,,,,,
5507,서울특별시 송파구 올림픽로 435 관리동1층,관리동1층,잠실파크리오,127.1131609,37.52028215,24,송파구,,,,,
6277,"서울특별시 강남구 남부순환로 2803 (도곡동, 삼성래미안아파트)",상가동 경비4초소 옆,도곡삼성래미안아파트,127.0506344,37.4893922,23,강남구,,,,,
6215,"서울특별시 강남구 역삼로 307 (역삼동, 역삼 IPARK)",경비실,역삼아이파크아파트,127.0448779,37.49904971,23,강남구,,,,,
5553,"서울특별시 송파구 올림픽로 212 A2동 아파트데스크 (잠실동, 갤러리아팰리스)",A2동 아파트데스크,갤러리아팰리스,127.093919,37.51110518,24,송파구,,,,,
5741,서울특별시 송파구 오금로 407 관리사무소 내,관리사무소 내,가락상아2차,127.1353385,37.49855544,24,송파구,,,,,
5664,서울특별시 송파구 가락로 187 노인정,5동현관 입구,송파한양1차,127.1133108,37.5057008,24,송파구,,,,,
5673,서울특별시 송파구 오금로32길 31 관리동 노인정 1층,1층 경로당,래미안송파파인탑,127.1197058,37.50206912,24,송파구,,,,,
5710,서울특별시 송파구 송파대로32길 15,경비1초소,가락금호,127.1163663,37.49629701,24,송파구,,,,,
6218,"서울특별시 강남구 선릉로69길 19 (역삼동, 역삼래미안아파트)",관리사무소,역삼래미안아파트,127.050691,37.49812635,23,강남구,,,,,
5516,서울특별시 송파구 한가람로 448 관리사무소,관리사무소,동아한가람,127.1159971,37.53723219,24,송파구,,,,,
7065,서울특별시 동작구 여의대방로 22 신대방우성1차아파트 (신대방동),12동 현관,신대방우성1차아파트,126.9116092,37.49226762,20,동작구,,,,,
6966,"서울특별시 동작구 장승배기로4길 9 (상도동, 상도더샵아파트)",관리사무소입구,상도더？아파트,126.9423206,37.5020932,20,동작구,,,,,
6948,"서울특별시 동작구 등용로 37 (상도동, 상도래미안1차아파트)",정문초소,상도래미안1차아파트,126.9334263,37.50468227,20,동작구,,,,,
7039,"서울특별시 동작구 상도로 346-1 (상도동, 힐스테이트 상도 센트럴파크)",관리사무소입구,힐스테이트상도센트럴파크,126.9504621,37.4956872,20,동작구,,,,,
7033,"서울특별시 동작구 상도로 320 (상도동, 중앙하이츠빌아파트)",정문경비실 입구,중앙하이츠빌아파트,126.9499021,37.49980716,20,동작구,,,,,
6904,"서울특별시 동작구 현충로 151 (흑석동, 한강현대아파트)",기계실,한강현대아파트,126.9702172,37.50629071,20,동작구,,,,,
6981,"서울특별시 동작구 흑석한강로 12 (흑석동, 흑석한강센트레빌)",관리사무소입구,흑석한강센트레빌,126.9647812,37.50583791,20,동작구,,,,,
6975,"서울특별시 동작구 서달로 91 (흑석동, 흑석한강센트레빌Ⅱ)",관리사무소입구,흑석한강센트레빌2차,126.9578814,37.50182929,20,동작구,,,,,
7064,"서울특별시 동작구 여의대방로10길 38 (신대방동, 보라매롯데낙천대아파트)",정문초소,롯데낙천대아파트,126.9135156,37.49405375,20,동작구,,,,,
7072,"서울특별시 동작구 신대방1가길 38 (신대방동, 동작상떼빌아파트)",101동 입구,동작상떼빌아파트,126.906524,37.48738662,20,동작구,,,,,
3168,"서울특별시 종로구 사직로8길 4 (사직동, 광화문 풍림스페이스본)",106동 방재실,풍림스페이스본,126.9680205,37.57425051,1,종로구,,,,,
3168,"서울특별시 종로구 사직로8길 4 (사직동, 광화문 풍림스페이스본)",1단지 생활지원센터,풍림스페이스본,126.9697014,37.57466991,1,종로구,,,,,
4761,"서울특별시 성동구 사근동길 5, 한양지구대 (행당동)",지구대 1층 출입문 옆,한양지구대,127.0417943,37.56030192,4,성동구,,,,,
4804,"서울특별시 성동구 용답중앙길 49, 용답파출소 (용답동)",사무데스크 옆 벽면,용답파출소,127.0517584,37.56478034,4,성동구,,,,,
4706,"서울특별시 성동구 마장로 205, 왕십리지구대 (홍익동)",1층 소내,왕십리파출소,127.0326577,37.56666845,4,성동구,,,,,
4703,"서울특별시 성동구 무학로 50(하왕십리동, 벽산아파트)",1층 경비실 정문(103동 뒤쪽),청계벽산아파트,127.0326723,37.56910834,4,성동구,,,,,
4750,"서울특별시 성동구 왕십리광장로 9, 성동경찰서 (행당동)",1층 소내,행당파출소,127.0288559,37.55742891,4,성동구,,,,,
5069,서울특별시 광진구 뚝섬로 569,106동 입구,자양우성1차아파트,127.0736507,37.5345276,5,광진구,,,,,
5069,서울특별시 광진구 뚝섬로 569,후문 경비초소,자양우성1차아파트,127.0736507,37.5345276,5,광진구,,,,,
4973,"서울특별시 광진구 아차산로70길 61, 광장현대5단지아파트 (광장동, 광장현대아파트)",504동 현관 입구,광장현대5단지아파트,127.0996796,37.54008074,5,광진구,,,,,
2641,서울특별시 동대문구 장한로14길 81 관리사무소,관리사무소 입구,장안래미안1차아파트(분양),127.0721794,37.56682029,6,동대문구,,,,,
130030,서울특별시 동대문구 답십리로 184,2동 1초소 앞,동서울한양아파트,127.060493,37.5717571,6,동대문구,,,,,
4620,"서울특별시 중구 동호로 261, 장충파출소 (장충동2가)",파출소 내 현관문 좌측 벽면,서울중부경찰서 장충파출소,127.004802,37.55876338,2,중구,,,,,
4596,"서울특별시 중구 동호로5길 15, 약수 지구대 (신당동)",1층 소내 입구 왼쪽 벽면,서울중부경찰서 약수지구대,127.0123535,37.55215185,2,중구,,,,,
7704,서울특별시 강서구 강서로45다길 30-27 관리사무소,관리사무소,화곡초록아파트,126.8329698,37.54528048,16,강서구,,,,,
3027,"서울특별시 종로구 사직로9길 5, 사직치안센터 (사직동)",파출소 내,사직파출소,126.9686207,37.57630701,1,종로구,,,,,
3138,"서울특별시 종로구 돈화문로 28, 종로3가치안센터 (묘동)",1층 소내 책상 위,종로3가치안센터,126.9922664,37.57125337,1,종로구,,,,,
4634,서울특별시 중구 퇴계로6길 3-10(회현동1가),1층 사무실,회현파출소,126.978823,37.55809394,2,중구,,,,,
5532,서울특별시 송파구 풍성로24길 42 관리사무소,관리사무소내,현대리버빌1차,127.1155537,37.53109771,24,송파구,,,,,
5536,서울특별시 송파구 토성로 38-6 관리사무소,관리사무소,한강극동,127.1127403,37.52942953,24,송파구,,,,,
6000,"서울특별시 강남구 압구정로 113 (압구정동, 미성아파트)",23동 3~5라인 입구,미성2차아파트,127.0184441,37.52440385,23,강남구,,,,,
5607,서울특별시 송파구 잠실로 88 관리사무소내,관리사무실내,레이크팰리스,127.0949369,37.50747512,24,송파구,,,,,
5571,서울특별시 송파구 올림픽로4길 42 관리사무소내,관리동1층,"잠실우성1,2,3차",127.0726326,37.506644,24,송파구,,,,,
2831,"서울특별시 성북구 성북로4길 52 (돈암동, 한신한진아파트)",관리사무소,"한신,한진아파트",127.0094026,37.59290593,8,성북구,,,,,
4732,"서울특별시 성동구 독서당로 191 (옥수동, 옥수동극동아파트)",2층 관리사무소(2동 옆),옥수극동아파트,127.0119856,37.54459431,4,성동구,,,,,
4741,"서울특별시 성동구 독서당로62길 43 (응봉동, 대림아파트)",관리사무소 입구,응봉대림아파트(1차),127.0335249,37.55190266,4,성동구,,,,,
4739,"서울특별시 성동구 독서당로40길 25(옥수동, 옥수현대아파트)",관리사무소,옥수현대아파트,127.0193043,37.54334996,4,성동구,,,,,
4747,"서울특별시 성동구 고산자로 160 (응봉동, 대림 강변 타운)",경비 2초소,대림강변타운아파트,127.0348842,37.55433983,4,성동구,,,,,
2750,"서울특별시 성북구 오패산로 46 (하월곡동, 월곡두산위브)",관리사무소,월곡두산위브아파트,127.0387096,37.60747438,8,성북구,,,,,
2794,"서울특별시 성북구 월곡로14길 26 (하월곡동, 월곡래미안루나밸리)",관리사무소,월곡래미안루나밸리아파트,127.0426512,37.60023267,8,성북구,,,,,
2749,"서울특별시 성북구 오패산로16가길 40 (하월곡동, 꿈의숲푸르지오)",관리사무소,꿈의숲푸르지오아파트,127.0383719,37.61160823,8,성북구,,,,,
2826,"서울특별시 성북구 아리랑로 89 (돈암동, 일신건영휴먼빌)",관리사무소,일신건영휴먼빌아파트,127.0136162,37.60076937,8,성북구,,,,,
2806,"서울특별시 성북구 정릉로 388 (돈암동, 동부센트레빌)",관리사무소,동부센트레빌아파트,127.0256204,37.60246844,8,성북구,,,,,
2723,"서울특별시 성북구 길음로 118 길음뉴타운4단지대림 (길음동, 길음뉴타운)",관리사무소(1층),길음뉴타운e편한세상4단지,127.0208476,37.61132386,8,성북구,,,,,
2802,"서울특별시 성북구 종암로21길 127 (종암동, 아이파크종암동)",2초소내,종암아이파크1차아파트,127.0293259,37.60280996,8,성북구,,,,,
4940,"서울특별시 광진구 용마산로24길 7, 중곡4파출소 (중곡동)",1층 입구,중곡4파출소,127.0872591,37.56535049,5,광진구,,,,,
2716,"서울특별시 성북구 서경로 31 (정릉동, 푸른마을동아아파트)",관리사무소,푸른마을동아아파트,127.0144327,37.60688159,8,성북구,,,,,
5053,"서울특별시 광진구 자양번영로 80, 자양1파출소 (자양동)",1층 안쪽 계단 근처,자양1파출소,127.0769223,37.53662079,5,광진구,,,,,
4927,"서울특별시 광진구 능동로 346, 중곡제2동주민센터 (중곡동)",1층 입구,중곡2파출소,127.0692012,37.54842587,5,광진구,,,,,
4909,서울특별시 광진구 능동로 385 (중곡동),1층 입구,중곡1파출소,127.0827887,37.56372111,5,광진구,,,,,
6999,"서울특별시 동작구 동작대로29길 91 (사당동, 사당우성2단지아파트)",관리사무소입구,사당우성2단지아파트,126.9759379,37.48964207,20,동작구,,,,,
6990,"서울특별시 동작구 동작대로29길 115 (사당동, 사당우성3단지아파트)",관리사무소입구,사당우성3단지아파트,126.9759379,37.48964207,20,동작구,,,,,
6998,"서울특별시 동작구 동작대로29길 110 (사당동, 사당신동아4차아파트)",종합상황실,사당신동아4단지,126.9759379,37.48964207,20,동작구,,,,,
6990,"서울특별시 동작구 동작대로29길 119 (사당동, 극동아파트)",108동 앞 경비초소,극동아파트,126.9759379,37.48964207,20,동작구,,,,,
6942,"서울특별시 동작구 여의대방로44길 47 대방주공2차아파트 (대방동, 주공아파트)",관리사무소1층 노인정,대방주공2차아파트,126.9295597,37.50936871,20,동작구,,,,,
6940,"서울특별시 동작구 등용로 127 (대방동, 대방동현대아파트)",관리사무소입구,대방현대1차아파트,126.9307729,37.51269359,20,동작구,,,,,
6943,"서울특별시 동작구 여의대방로44길 10 (대방동, 대림아파트)",관리사무소입구,대림아파트,126.9243598,37.507263,20,동작구,,,,,
2058,"서울특별시 중랑구 용마산로 616 (신내동, 새한아파트)",101동 102동 사이 B경비초소,신내새한아파트,127.1012262,37.60493329,7,중랑구,,,,,
2043,"서울특별시 중랑구 봉화산로 193 (신내동, 신내대명아파트)",1104동 경비실 앞,신내대명아파트,127.0940084,37.60753699,7,중랑구,,,,,
2054,"서울특별시 중랑구 신내로 110 (신내동, 동성아파트)",2층 관리사무소 앞,신내동성3차아파트,127.0962475,37.60852627,7,중랑구,,,,,
2027,"서울특별시 중랑구 신내로17길 41 (신내동, 진로아파트)",관리사무소 외벽,신내7단지진로아파트,127.0937736,37.61469445,7,중랑구,,,,,
2070,"서울특별시 중랑구 봉화산로56길 123 (신내동, 중앙하이츠아파트)",정문경비실,신내중앙하이츠아파트,127.0989033,37.60355044,7,중랑구,,,,,
2150,"서울특별시 중랑구 망우로 346 (상봉동, 한일써너스빌)",중앙경비실내,한일써너스빌아파트,127.0911825,37.59710214,7,중랑구,,,,,
2075,"서울특별시 중랑구 봉화산로 130 (상봉동, 쌍용아파트)",관리사무소 입구,"신내LG,쌍용아파트",127.090715,37.60376262,7,중랑구,,,,,
2020,"서울특별시 중랑구 공릉로18길 59 (묵동, 브라운스톤태릉아파트)",관리사무소 1층 입구,브라운스톤태릉아파트,127.0833042,37.61906552,7,중랑구,,,,,
2023,"서울특별시 중랑구 신내로21길 16 (묵동, 신내두산대림아파트)",관리사무소 출입구 입구,신내5단지두산대림아파트,127.0882018,37.61605041,7,중랑구,,,,,
2133,"서울특별시 중랑구 중랑천로 20 (면목동, 면목한신아파트)",1층 관리사무소 입구,면목한신아파트,127.0758033,37.58648131,7,중랑구,,,,,
2241,"서울특별시 중랑구 사가정로42길 90 (면목동, 면목두산아파트)",501동 옆 관리사무소 출입문 앞,면목두산아파트,127.0810925,37.57795936,7,중랑구,,,,,
2196,"서울특별시 중랑구 사가정로71길 19 (면목동, 용마한신아파트)",1층 관리사무소 내,용마한신아파트,127.0959499,37.58132018,7,중랑구,,,,,
3916,서울특별시 마포구 월드컵북로 502-37,1초소 경비실,상암월드컵파크11단지,126.8821629,37.58771183,14,마포구,,,,,
3903,"서울특별시 마포구 상암산로1길 92 (상암동, 상암월드컵파크 7단지)",관리사무소앞(710동 상가 맞은편),상암월드컵파크7단지,126.8823442,37.58186637,14,마포구,,,,,
4153,서울특별시 마포구 독막로 266,관리사무소 입구,마포태영아파트,126.9425705,37.54473232,14,마포구,,,,,
8857,"서울특별시 관악구 난곡로16길 32, 서울난우중학교 (신림동)",학교보건실,난우중학교,126.9228301,37.46680576,21,관악구,,,,,
8831,서울특별시 관악구 청룡16길 25,학교보건실,영락유헬스고등학교,126.9454164,37.47654259,21,관악구,,,,,
8741,서울특별시 관악구 남부순환로237길 60,본관 1층 중앙현관 옆 본관,관악중학교,126.9619123,37.48125828,21,관악구,,,,,
8857,"서울특별시 관악구 난곡로 162, 난곡보건분소 (신림동)",난곡보건분소 1층 민원실,난곡보건분소,126.9203288,37.46949163,21,관악구,,,,,
3305,"서울특별시 은평구 연서로 535, 하나고등학교 (진관동)",보건실 입구,하나고등학교,126.9369302,37.64163759,12,은평구,,,,,
3306,"서울특별시 은평구 진관2로 57-57, 은평메디텍고등학교 (진관동)",본관 1층 방제실 안,은평메디텍고등학교,126.9297048,37.63534652,12,은평구,,,,,
3337,"서울특별시 은평구 통일로92가길 33, 세명컴퓨터고등학교 (불광동)",본관 3층 교무실,세명컴퓨터고등학교,126.9235455,37.62784757,12,은평구,,,,,
3327,"서울특별시 은평구 서오릉로20길 19, 선정중학교, 선정고등학교 (갈현동)",2층 교무실 앞,선정관광고등학교,126.9090316,37.61870451,12,은평구,,,,,
3327,"서울특별시 은평구 서오릉로20길 19, 선정중학교, 선정고등학교 (갈현동)",1층 중앙현관,선정고등학교,126.9090316,37.61870451,12,은평구,,,,,
3428,"서울특별시 은평구 갈현로15길 51, 은평고등학교, 구현초등학교 (구산동)",1층 보건실 내,은평고등학교,126.9057073,37.6097896,12,은평구,,,,,
4187,서울특별시 마포구 만리재로 74,관리사무소 입구,신공덕2차삼성래미안아파트,126.9588792,37.54648418,14,마포구,,,,,
120758,서울특별시 서대문구 통일로39가길 57 (홍제동) 현대아파트,후문 경비실 안,홍제현대아파트,126.9413997,37.58899587,13,서대문구,,,,,
2863,서울특별시 성북구 보문로29길 92 (삼선동3가),소내책상옆,삼선치안센터,127.0134868,37.58620936,8,성북구,,,,,
2870,"서울특별시 성북구 지봉로21길 45, 안암지구대 순찰차21호 (보문동3가)",순찰차21호(998무8206),성북경찰서 보문치안센터,127.0205444,37.5796746,8,성북구,,,,,
2870,서울특별시 성북구 지봉로21길 45 (보문동3가),소내2층출입구옆,안암지구대,127.0165982,37.58672072,8,성북구,,,,,
2701,"서울특별시 성북구 보국문로30길 15 (정릉동, 정릉대우)",102동 관리사무소,정릉대우아파트,127.0029903,37.61743121,8,성북구,,,,,
4768,"서울특별시 성동구 왕십리로5길 3, 뚝섬치안센터 (성수동1가)",1층 소내,뚝섬치안센터,127.0443497,37.54640255,4,성동구,,,,,
2620,"서울특별시 동대문구 황물로15길 25 (답십리동, 두산위브아파트)",정문 경비실,답십리두산위브아파트,127.0571883,37.56656253,6,동대문구,,,,,
7062,서울특별시 동작구 여의대방로20길 33 동주공원녹지사업소 (신대방동),관리사무소1층 현관앞,보라매공원 관리사무소,126.9194911,37.49489212,20,동작구,,,,,
3949,서울특별시 마포구 월드컵북로 152,2층 보건실 앞 복도,서울중동초등학교,126.9117752,37.56641061,14,마포구,,,,,
120757,서울특별시 서대문구 이화여대길 50-5 (대현동),관리사무소 좌측 벽,대현럭키아파트,126.9465196,37.55945396,13,서대문구,,,,,
7375,서울특별시 영등포구 도신로15길 11 스포츠클라이밍경기장 (도림동),도림유수지 스포츠 클라이밍장,도림유수지체육시설,126.8975776,37.50620386,19,영등포구,,,,,
6963,서울특별시 동작구 장승배기로10길 42 동작구보선소 (상도동),보건소1층민원안내,동작구보건소,126.9407262,37.50421279,20,동작구,,,,,
3939,서울특별시 마포구 월드컵로36길 34,본관로비 행정실앞,서울성원초등학교,126.9093134,37.56918254,14,마포구,,,,,
4202,서울특별시 마포구 마포대로24길 42,"중앙현관보건실옆, 계단 앞",서울소의초등학교,126.9606556,37.55278186,14,마포구,,,,,
7061,서울특별시 동작구 보라매로5길 20 서울특별시보라매병원 (신대방동),1층민원안내,서울특별시보라매병원,126.9238904,37.49336759,20,동작구,,,,,
3905,서울특별시 마포구 월드컵로42길 30,2층 도서실 앞,서울상지초등학교,126.8820736,37.57975102,14,마포구,,,,,
4087,서울특별시 마포구 신수로 49,보건실 복도 벽면,신수중학교,126.934132,37.545923,14,마포구,,,,,
8863,서울특별시 관악구 문성로16길 40,제1교무실,미성중학교,126.9120889,37.47538281,21,관악구,,,,,
8018,"서울특별시 양천구 목동동로8길 70, 목일중학교 (신정동)",본관 1층 행정실 앞,목일중학교,126.8740316,37.5135405,15,양천구,,,,,
8569,"서울특별시 금천구 독산로36나길 21, 신흥초등학교 (시흥동)",1층 복도,서울신흥초등학교,126.9093508,37.45934816,18,금천구,,,,,
3027,"서울특별시 종로구 사직로9길 15-14, 종로도서관 (사직동)",종로도서관 안내실,종로도서관,126.9664668,37.57644967,1,종로구,,,,,
5816,서울특별시 송파구 충민로2길 20,1층,송파산모건강증진센터,127.1271271,37.47793798,24,송파구,,,,,
6373,"서울특별시 강남구 자곡로 100, 2층 (자곡동)",보건분소 접수대 뒤,강남구보건소(세곡보건지소),127.10528,37.48899934,23,강남구,,,,,
2461,서울특별시 동대문구 왕산로 303  (청량리동),정보관1층현관,청량고등학교,127.051311,37.588886,6,동대문구,,,,,
5661,서울특별시 송파구 오금로 323,1층 영업장,서울송파우체국,127.1280296,37.50254387,24,송파구,,,,,
2450,서울특별시 동대문구 이문로 107 국제학사2층 201호 보건실,보건실,한국외국어대학교,127.0579424,37.59829668,6,동대문구,,,,,
4535,서울특별시 중구 소공로 70 포스트타워빌딩 8층,8층 민원실,건강보험공단중구지사,126.9821851,37.56117554,2,중구,,,,,
4800,"서울특별시 성동구 동일로43길 9, 송원초등학교 (송정동)",1층 엘레베이터 옆,서울송원초등학교,127.069528,37.55415747,4,성동구,,,,,
4774,"서울특별시 성동구 뚝섬로 332, 경일초등학교 (성수동1가)",1층 교무실 앞,서울경일초등학교,127.0466048,37.54094208,4,성동구,,,,,
4721,"서울특별시 성동구 행당로1길 13, 서울금북초등학교 (금호동1가)",보건실 앞 복도,서울금북초등학교,127.0235588,37.55749486,4,성동구,,,,,
2069,서울특별시 중랑구 신내로 56 (신내동),중앙로비 정면벽,원광장애인종합복지관,127.0960155,37.60419811,7,중랑구,,,,,
4768,"서울특별시 성동구 왕십리로5길 3, 성수1가제2동 공공복합청사 4층 (성수동1가)",성수보건지소,성수보건지소,127.0443497,37.54640255,4,성동구,,,,,
4731,"서울특별시 성동구 동호로5길 131, 서울방송고등학교 (옥수동)",본관2층 엘레베이터 앞,서울방송고등학교,127.0110373,37.54777448,4,성동구,,,,,
7532,서울특별시 강서구 허준로 234 관리사무실,관리동1층 관리사무소 내,가양9-2단지아파트,126.8637381,37.55857186,16,강서구,,,,,
2719,"서울특별시 성북구 정릉로 305 (정릉동, 경남아파트)",관리사무소,길음뉴타운 경남아너스빌,127.0178071,37.60484489,8,성북구,,,,,
5502,서울특별시 송파구 잠실로 12,1층 중앙현관,잠신중학교,127.0878036,37.51616992,24,송파구,,,,,
136831,서울특별시 성북구 한천로 693 (장위동),본관서쪽현관,광운초등학교,127.0550771,37.61906522,8,성북구,,,,,
5502,서울특별시 송파구 잠실로 24 보건실,정보관 1층,잠신고등학교,127.088283,37.51470129,24,송파구,,,,,
5660,서울특별시 송파구 중대로 247,교무실 옆,오금고등학교,127.1289706,37.50453082,24,송파구,,,,,
5645,서울특별시 송파구 오금로27길 18,2층 체육관 입구,방산고등학교,127.1204675,37.5083997,24,송파구,,,,,
5504,서울특별시 송파구 올림픽로35길 130,"중앙현관 안쪽, 제1교무실 입구",잠실중학교,127.0986662,37.51781757,24,송파구,,,,,
5676,서울특별시 송파구 송파대로38길 8 일신여자상업고등학교,2층계단 앞 복도,일신여자상업고등학교,127.1142413,37.50179251,24,송파구,,,,,
5571,서울특별시 송파구 올림픽로4길 16,102호 앞홈베이스 앞,정신여자중학교,127.0738473,37.50945384,24,송파구,,,,,
5758,서울특별시 송파구 마천로61다길 24,본관1층 회의실 앞 복도,마천초등학교,127.1526295,37.49550545,24,송파구,,,,,
7634,서울특별시 강서구 강서로47길 158 관리사무실,관리사무실,마곡수명산파크2단지아파트,126.8276407,37.55385752,16,강서구,,,,,
7510,서울특별시 강서구 금낭화로 287-19 관리사무실,관리사무실,방화5단지아파트,126.8102855,37.57680268,16,강서구,,,,,
7531,서울특별시 강서구 허준로 175 관리사무실,관리사무실,가양6단지아파트,126.8592894,37.56375809,16,강서구,,,,,
5072,서울특별시 광진구 아차산로24길 17,1층 로비 지소사무실 앞,자양보건지소,127.0651113,37.54026298,5,광진구,,,,,
143847,서울특별시 광진구 천호대로130길 58 (능동),본관1층,경복초등학교,127.0867929,37.54981404,5,광진구,,,,,
7581,서울특별시 강서구 강서로68길 36 관리사무실,203동 1층 경비실 앞,등촌주공2단지아파트,126.8420127,37.56490942,16,강서구,,,,,
3402,서울특별시 은평구 연서로6길 7,1층 화장실 앞,신나는애프터센터,126.9166275,37.60437278,12,은평구,,,,,
7811,서울특별시 강서구 마곡중앙로 36 관리사무실,관리사무실(1512동 10~20),마곡엠밸리15단지아파트,126.8273023,37.55731685,16,강서구,,,,,
7740,서울특별시 강서구 곰달래로57가길 26 수련관 로비1층,수련관 로비 1층,시립화곡청소년센터,126.8608015,37.53468531,16,강서구,,,,,
4357,서울특별시 용산구 효창원로13길 38,1층 보건실 앞,서울원효초등학교,126.9515453,37.53616126,3,용산구,,,,,
7647,서울특별시 강서구 공항대로42길 23-19 1층 로비,1층 로비,강서청소년회관,126.844286,37.55647912,16,강서구,,,,,
7532,서울특별시 강서구 양천로59길 38 1층 민원실,1층 민원실,강서구청 가양동별관,126.8596797,37.56059759,16,강서구,,,,,
3397,서울특별시 은평구 불광로 20 15층 팜스퀘어 (주)팜스개발 TW 001호,B2층 고객센터 앞 ATM 기기 옆,NC백화점불광점,126.9289385,37.60973577,12,은평구,,,,,
7627,서울특별시 강서구 송정로 45-1 지하2층 민원실,지하2층 민원실,공항동문화체육센터,126.8103996,37.55894146,16,강서구,,,,,
7590,서울특별시 강서구 화곡로61길 85 1층 로비,1층 로비,강서노인종합복지관,126.8475516,37.5581232,16,강서구,,,,,
7788,서울특별시 강서구 마곡중앙5로 2. 지하 안전관리실,안전관리실 옆,서울메트로9호선 마곡나루역,126.8275182,37.56679303,16,강서구,,,,,
5507,서울특별시 송파구 올림픽로35길 20,후관 1층,잠실초등학교,127.1113114,37.52018633,24,송파구,,,,,
122840,서울특별시 은평구 통일로 793 (대조동),신관2층 보건실옆,동명여고,126.9250653,37.61449186,12,은평구,,,,,
5677,서울특별시 송파구 송파대로36길 8,1층 엘리베이터앞,중대초등학교,127.1136055,37.4998119,24,송파구,,,,,
5797,서울특별시 송파구 문정로5길 20,1층 중앙현관,문정초등학교,127.1290135,37.48907284,24,송파구,,,,,
3322,"서울특별시 은평구 갈현로29길 27, 선일학교 (갈현동)",본관1층 중앙현관,선일여고,126.9129182,37.61907856,12,은평구,,,,,
5673,서울특별시 송파구 송이로 45,본관 중앙현관1층,가락중학교,127.1187527,37.50248553,24,송파구,,,,,
5666,서울특별시 송파구 백제고분로 400,보건실 앞,송파초등학교,127.1111188,37.50713665,24,송파구,,,,,
5533,서울특별시 송파구 풍성로20길 44,본관 1층,토성초등학교,127.1157724,37.53189633,24,송파구,,,,,
5660,서울특별시 송파구 오금로35길 20 보건실,제1교무실,오주중학교,127.1362666,37.50150606,24,송파구,,,,,
122867,서울특별시 은평구 통일로92가길 33 (불광동),정보관 2층 교무실 옆 계단,세명컴퓨터고등학교,126.9232499,37.6277708,12,은평구,,,,,
122867,서울특별시 은평구 통일로92가길 33 (불광동),신관1층 남교직원 화장실 옆 계단,세명컴퓨터고등학교,126.9232499,37.6277708,12,은평구,,,,,
5781,서울특별시 송파구 문정로 176 송파배드민턴체육관,출입문 좌측,송파배드민턴체육관,127.1382697,37.49371031,24,송파구,,,,,
5540,서울특별시 송파구 올림픽로 424,관리사무실,여성축구장,127.1180583,37.52409581,24,송파구,,,,,
122910,서울특별시 은평구 은평로6길 16 (응암동),신관3층 1학년 교무실 내,신진과학기술고등학교,126.9188364,37.59871385,12,은평구,,,,,
6143,"서울특별시 강남구 봉은사로 320, 9층 비즈니스센터 9층 (역삼동)",9층 사무실 입구,강남구자원봉사센터,127.041955,37.50942911,23,강남구,,,,,
122819,서울특별시 은평구 연서로 117 (구산동),2층 행정실 앞 복도,예일디자인고등학교,126.9155341,37.60962009,12,은평구,,,,,
122200,서울특별시 은평구 연서로 535 (진관동),누리동 7층 엘리베이터 옆,하나고등학교,126.9369302,37.64163759,12,은평구,,,,,
122200,서울특별시 은평구 연서로 535 (진관동),우정학사해오름관 5층 승강기 옆,하나고등학교,126.9369302,37.64163759,12,은평구,,,,,
122918,서울특별시 은평구 가좌로 208 (응암동),1층 보건실 현관 옆,은평문화예술정보학교,126.9192655,37.58952241,12,은평구,,,,,
122853,서울특별시 은평구 불광로 180 (불광동),보건실 앞,불광중학교,126.9321291,37.62320355,12,은평구,,,,,
122801,서울특별시 은평구 서오릉로20길 19 (갈현동),1층 중앙현관 우측,선정중학교,126.9090316,37.61870451,12,은평구,,,,,
122939,서울특별시 은평구 증산서길 125-6 (증산동),1층 교무실 내부,연서중학교,126.9092766,37.58701931,12,은평구,,,,,
122939,서울특별시 은평구 증산서길 125-6 (증산동),보건실 옆,연서중학교,126.9092766,37.58701931,12,은평구,,,,,
122866,서울특별시 은평구 연서로33길 16-32 (불광동),"본관1층 계단 앞 기둥, 교무실 옆",연신중학교,126.9249884,37.62347466,12,은평구,,,,,
122868,서울특별시 은평구 연서로41길 30 (불광동),해오름관체육관,연천중학교,126.9257774,37.62735841,12,은평구,,,,,
122936,서울특별시 은평구 증산로5길 27-30 (증산동),"본관1층 중앙복도, 교장실 앞",증산중학교,126.9049399,37.58381539,12,은평구,,,,,
122951,서울특별시 은평구 가좌로5길 5 (응암동),본관 3층 2학년 교무실 옆,충암중학교,126.9218095,37.58464029,12,은평구,,,,,
122951,서울특별시 은평구 가좌로5길 5 (응암동),별관2층 보건실 옆,충암중학교,126.9218095,37.58464029,12,은평구,,,,,
122959,서울특별시 은평구 연서로29길 31 (갈현동),"본관1층 중앙현관, 회의실 앞",갈현초등학교,126.9166834,37.61977964,12,은평구,,,,,
122821,서울특별시 은평구 서오릉로15길 16 (구산동),1층 보건실앞,구산초등학교,126.9093765,37.61275096,12,은평구,,,,,
143815,서울특별시 광진구 아차산로70길 17-62 (광장동),1층 보건실앞 복도,광남중학교,127.101451,37.54050495,5,광진구,,,,,
4973,"서울특별시 광진구 아차산로70길 35, 서울광남초등학교 (광장동)",1층 보건실 앞 복도,광남초등학교,127.1006445,37.54244279,5,광진구,,,,,
6728,"서울특별시 서초구 서운로 38, 서초2파출소 (서초동)",1층 소내 입구,서초2파출소,127.0289822,37.48752062,22,서초구,,,,,
6738,서울특별시 서초구 남부순환로356길 9,1층 소내 입구,양재파출소,127.0378555,37.48454577,22,서초구,,,,,
6800,"서울특별시 서초구 헌릉로 226, 내곡파출소 (내곡동)",소내 관내도 오른쪽,내곡파출소,127.0649235,37.45494914,22,서초구,,,,,
7322,서울특별시 영등포구 여의나루로 7 광장아파트,정문,광장아파트(여의도),126.9211329,37.52001315,19,영등포구,,,,,
2712,"서울특별시 성북구 솔샘로24길 15 (정릉동, 정릉e-편한세상)",관리사무소,정릉e편한세상1차아파트,127.010973,37.61500888,8,성북구,,,,,
3086,서울특별시 종로구 대학로8길 7,아르코예술극장 로비 안내데스크,한국문화예술위원회,127.0029999,37.58118552,1,종로구,,,,,
7216,서울특별시 영등포구 당산로42길 16 당산현대5차아파트,관리동1층,당산현대5차아파트(당산동4가),126.8997902,37.53041255,19,영등포구,,,,,
7227,서울특별시 영등포구 영중로 145,아파트 정문 초소 바깥 벽,영등포삼환아파트(영등포동8가),126.904467,37.52926315,19,영등포구,,,,,
7226,서울특별시 영등포구 영중로 154,지하 1층 관리사무소 내 복사기 옆 칸막이 뒤쪽 벽,당산푸르지오아파트,126.9060695,37.53023076,19,영등포구,,,,,
7324,서울특별시 영등포구 여의동로3길 10 여의도자이아파트,201동 로비,여의도자이아파트,126.9260219,37.51774353,19,영등포구,,,,,
7211,서울특별시 영등포구 선유로 207 양평현대6차아파트,정문경비초소 내 벽면,양평현대6차아파트(양평동3가),126.8936625,37.53181501,19,영등포구,,,,,
7350,서울특별시 영등포구 여의대방로43라길 9,CCTV실,신길삼환아파트(신길7동),126.9189631,37.50755756,19,영등포구,,,,,
7380,서울특별시 영등포구 도신로 70 신길우성1차아파트,관리사무소,신길우성1차아파트(신길3동),126.900428,37.50598645,19,영등포구,,,,,
7295,서울특별시 영등포구 문래로 82 문래힐스테이트아파트,정문 101동 앞 관제실,문래힐스테이트아파트,126.8908644,37.5183614,19,영등포구,,,,,
7411,서울특별시 영등포구 대림로31길 40,정문초소,대림신동아아파트(대림3동),126.8946141,37.49633885,19,영등포구,,,,,
7376,서울특별시 영등포구 도신로 31 대림현대3차아파트,정문 경비실,대림현대3차아파트(대림3동),126.8963836,37.50510314,19,영등포구,,,,,
7214,서울특별시 영등포구 당산로 214,관리사무소,당산삼성래미안4차아파트(당산동5가),126.9030635,37.53195555,19,영등포구,,,,,
7322,서울특별시 영등포구 의사당대로 108 미성아파트,E동 경비실,미성아파트(여의도),126.9235448,37.52035261,19,영등포구,,,,,
7437,서울특별시 영등포구 여의대방로 25 보라매 경남아너스빌아파트,관리사무소 1층 출입구,보라매경남아너스빌아파트(신길6동),126.9092179,37.49481926,19,영등포구,,,,,
7256,서울특별시 영등포구 국회대로28길 17 당산데이케어센터,케어실 간호 책상 위에 있음,당산데이케어센터,126.8942787,37.52711693,19,영등포구,,,,,
7204,서울특별시 영등포구 양평로24길 9 양평 한신휴플러스아파트,103동 상황실 옆 선거관리위원회 사무실 내 우측 벽면,양평한신휴플러스아파트(양평동5가),126.8923831,37.53996565,19,영등포구,,,,,
7436,서울특별시 영등포구 대방천로 172 신길우성3차아파트,관리사무소,신길우성3차아파트(신길6동),126.9091279,37.49679803,19,영등포구,,,,,
7411,서울특별시 영등포구 대림로31나길 17 영남중학교,1층 교무실,영남중학교,126.8958384,37.49787344,19,영등포구,,,,,
7211,서울특별시 영등포구 선유로 213 선유중학교,1층 중앙현관,선유중학교,126.8945484,37.53302314,19,영등포구,,,,,
7293,서울특별시 영등포구 당산로 56 양화중학교,1층 보건실 앞,양화중학교,126.8959945,37.5196596,19,영등포구,,,,,
7209,서울특별시 영등포구 양평로17길 36,정문초소 내 출입문 우측 벽면,양평성원아파트,126.8943698,37.53443476,19,영등포구,,,,,
7215,서울특별시 영등포구 당산로42길 13 효성1차아파트,정문경비실,효성1차아파트(당산동5가),126.90212,37.53103845,19,영등포구,,,,,
7375,서울특별시 영등포구 도신로15길 11 스포츠클라이밍 경기장 (도림동),영등포다목적배드민턴체육관,도림유수지체육시설2,126.8982002,37.50597131,19,영등포구,,,,,
7317,서울특별시 영등포구 영등포로64길 8 신길우성4차아파트,관리사무소내 경로당,신길우성4차아파트(영등포본동),126.9175422,37.51406182,19,영등포구,,,,,
7224,서울특별시 영등포구 당산로54길 11,중앙초소 냉장고 옆,강마을삼성래미안당산1차아파트(당산동6가),126.9051267,37.53485259,19,영등포구,,,,,
7331,서울특별시 영등포구 의사당대로 127 롯데캐슬엠파이어,102동 안내데스크 뒤 우편물보관실,롯데캐슬엠파이어(여의도),126.9264067,37.52024054,19,영등포구,,,,,
7350,서울특별시 영등포구 가마산로79길 46 푸른숲마을육군아파트,정문경비실,푸른숲마을육군아파트(신길7동),126.9179665,37.50874957,19,영등포구,,,,,
7249,서울특별시 영등포구 국회대로54길 41-16 햇살보금자리,2층 사무실 내,햇살보금자리,126.9104609,37.52209001,19,영등포구,,,,,
7306,서울특별시 영등포구 경인로102길 10(영등포동),희망지원센터,서울시립영등포보현종합지원센터,126.9059672,37.51577166,19,영등포구,,,,,
7363,서울특별시 영등포구 경인로94길 6 옹달샘드롭인센터,상황실 옆,옹달샘드롭인센터,126.9025806,37.51423108,19,영등포구,,,,,
7262,서울특별시 영등포구 선유로 120,1층 안내데스크 책상 위,고용노동부남부지청,126.8915115,37.52456224,19,영등포구,,,,,
7213,서울특별시 영등포구 당산로41길 12 당산서중학교,교무실과 중앙현관 사이 복도,당산서중학교,126.8988269,37.53248539,19,영등포구,,,,,
7224,서울특별시 영등포구 버드나루로 160 당산중학교,1층 중앙현관,당산중학교,126.907614,37.53203308,19,영등포구,,,,,
7310,서울특별시 영등포구 영등포로62길 31 영원중학교,보건실내,영원중학교,126.9138927,37.51556164,19,영등포구,,,,,
7258,서울특별시 영등포구 국회대로 608,중앙현관옆,영등포경찰서,126.9010078,37.52595678,19,영등포구,,,,,
5026,"서울특별시 광진구 자양로 117, 광진구청 (자양동)",광진구보건소 4층 보건교육실,광진구보건소,127.0819098,37.53853161,5,광진구,,,,,
4631,"서울특별시 중구 소공로 48, 우리금융디지털타워 16층 (회현동2가)",로비 매표소 앞,서울경제진흥원서울애니메이션센터,126.983074,37.5598231,2,중구,,,,,
4806,서울특별시 성동구 가람길 125(송정동),사무실앞,서울특별시립게스트하우스,127.0577312,37.55408985,4,성동구,,,,,
5236,서울특별시 강동구 고덕로 137,암사1 치안센터 1층 소내입구,암사1치안센터,127.1326412,37.55147973,25,강동구,,,,,
5397,서울특별시 강동구 성내로 57,지구대 내,성내지구대,127.1243976,37.52942863,25,강동구,,,,,
5386,서울특별시 강동구 천호옛길 68,1층 소내입구,성내2치안센터,127.1246015,37.53498579,25,강동구,,,,,
110521,서울특별시 종로구 성균관로13길 40 (명륜1가),본관1층 엘레베이터 앞,서울국제고등학교,126.9954907,37.59179115,1,종로구,,,,,
110400,서울특별시 종로구 종로 157 (훈정동),종묘 정문,문화재청종묘관리소,126.9945665,37.57218693,1,종로구,,,,,
110054,서울특별시 종로구 사직로9길 7 (사직동),사직단사무실,사직단출장소,126.9673404,37.57515366,1,종로구,,,,,
156877,서울특별시 동작구 현충로 119 (흑석동) 명수대현대아파트,노인정,명수대현대아파트,126.9672592,37.50827279,20,동작구,,,,,
7322,서울특별시 영등포구 여의나루로2길 14 윤중초등학교,2층 교무지원실 앞 복도,윤중초등학교,126.9225902,37.51964065,19,영등포구,,,,,
139766,서울특별시 노원구 동일로227길 86 (상계동) 상계주공16단지아파트,(상계8동) 관리소 내,상계16단지아파트,127.0527248,37.67040454,11,노원구,,,,,
158769,서울특별시 양천구 목동서로 340 (신정동) 목동신시가지아파트9단지,관리사무소1층 출퇴근 기록부 옆 벽,목동9단지아파트,126.8624038,37.51854071,15,양천구,,,,,
7206,서울특별시 영등포구 선유로55길 32 당산초등학교,1층 교무실 앞,당산초등학교,126.8962411,37.54011912,19,영등포구,,,,,
7213,서울특별시 영등포구 당산로 187 당서초등학교,1층 복도 상담실 앞,당서초등학교,126.899562,37.53185396,19,영등포구,,,,,
7271,서울특별시 영등포구 선유로 131 당중초등학교,본관중앙현관,당중초등학교,126.8894139,37.52628887,19,영등포구,,,,,
7434,서울특별시 영등포구 대방천로 206 대길초등학교,1층본관 보건실앞,대길초등학교,126.9129737,37.49843062,19,영등포구,,,,,
7418,서울특별시 영등포구 대림로21길 6 대동초등학교,중앙현관,대동초등학교,126.9001186,37.49370368,19,영등포구,,,,,
7397,서울특별시 영등포구 신길로23길 43 대영초등학교,중앙현관,대영초등학교,126.9063367,37.50267937,19,영등포구,,,,,
7384,서울특별시 영등포구 가마산로65길 22 도림초등학교,1층 본관 보안관실 옆,도림초등학교,126.9070023,37.50787423,19,영등포구,,,,,
7409,서울특별시 영등포구 도림로53길 32-9 도신초등학교,1층 본관 행정실 앞,도신초등학교,126.9007141,37.49926789,19,영등포구,,,,,
7295,서울특별시 영등포구 문래로 104 문래초등학교,교무실,문래초등학교,126.8932344,37.51822301,19,영등포구,,,,,
7210,서울특별시 영등포구 선유로43가길 14 선유초등학교,정문현관1층,선유초등학교,126.8927768,37.53287919,19,영등포구,,,,,
7439,서울특별시 영등포구 대림로8길 25 신대림초등학교,보건실,신대림초등학교,126.9058153,37.49215502,19,영등포구,,,,,
7341,"서울특별시 영등포구 여의대방로 439, 여의도초등학교 (여의도동)",별관1층 보건실 앞,여의도초등학교,126.9367944,37.52320482,19,영등포구,,,,,
7229,서울특별시 영등포구 국회대로53길 20 영동초등학교,교무실,영동초등학교,126.9075726,37.5269523,19,영등포구,,,,,
7281,서울특별시 영등포구 문래로 56 영문초등학교,1층 초롱실 옆,영문초등학교,126.8875891,37.51980741,19,영등포구,,,,,
7350,서울특별시 영등포구 도신로60길 23 영신초등학교,교무실,영신초등학교,126.9181206,37.51006627,19,영등포구,,,,,
7365,서울특별시 영등포구 도영로22길 31 영원초등학교,1층 보건실 입구,영원초등학교,126.9021816,37.51071999,19,영등포구,,,,,
7245,서울특별시 영등포구 양산로 185 영중초등학교,본관 1층 우측 통로 출구 우측 벽,영중초등학교,126.9036955,37.5241433,19,영등포구,,,,,
7347,서울특별시 영등포구 신길로 190 우신초등학교,1층중앙현관,우신초등학교,126.9118637,37.50986472,19,영등포구,,,,,
7242,서울특별시 영등포구 은행로 22 1층 방재실,1층 방재실,한국산업은행별관,126.9220246,37.52781687,19,영등포구,,,,,
7235,서울특별시 영등포구 여의공원로 13 한국방송공사(KBS),의무실,KBS(한국방송공사),126.9167191,37.5259689,19,영등포구,,,,,
7417,서울특별시 영등포구 도림로 156 명지성모병원,지하1층 영상의학과 접수실,명지성모병원,126.8992545,37.49385071,19,영등포구,,,,,
7417,서울특별시 영등포구 도림로 156 명지성모병원,5층 51병동 간호사실,명지성모병원,126.8992545,37.49385071,19,영등포구,,,,,
7209,서울특별시 영등포구 선유로45길 21 한국 요꼬가와 전기주식회사,1층 로비 출입문 안 오른쪽,한국요꼬가와전기주식회사,126.8938435,37.53488659,19,영등포구,,,,,
7345,서울특별시 영등포구 63로 50 한화63시티,1층 로비 하나은행 옆,한화생명보험주식회사,126.9399093,37.51966416,19,영등포구,,,,,
6993,"서울특별시 동작구 동작대로39길 22 (동작동, 이수힐스테이트)",생활지원센터,이수힐스테이트아파트,126.980048,37.49440736,20,동작구,,,,,
5368,"서울특별시 강동구 진황도로61길 53, 중앙보훈병원 (둔촌동)",32병동,중앙보훈병원,127.1477173,37.52969009,25,강동구,,,,,
5368,"서울특별시 강동구 진황도로61길 53, 중앙보훈병원 (둔촌동)",90병동,중앙보훈병원,127.1477173,37.52969009,25,강동구,,,,,
5368,"서울특별시 강동구 진황도로61길 53, 중앙보훈병원 (둔촌동)",63병동,중앙보훈병원,127.1477173,37.52969009,25,강동구,,,,,
5368,"서울특별시 강동구 진황도로61길 53, 중앙보훈병원 (둔촌동)",73병동,중앙보훈병원,127.1477173,37.52969009,25,강동구,,,,,
5368,"서울특별시 강동구 진황도로61길 53, 중앙보훈병원 (둔촌동)",입원집중운동치료실1,중앙보훈병원,127.1477173,37.52969009,25,강동구,,,,,
5368,"서울특별시 강동구 진황도로61길 53, 중앙보훈병원 (둔촌동)",낮병동,중앙보훈병원,127.1477173,37.52969009,25,강동구,,,,,
5368,"서울특별시 강동구 진황도로61길 53, 중앙보훈병원 (둔촌동)",외과,중앙보훈병원,127.1477173,37.52969009,25,강동구,,,,,
5368,"서울특별시 강동구 진황도로61길 53, 중앙보훈병원 (둔촌동)",순환기내과,중앙보훈병원,127.1477173,37.52969009,25,강동구,,,,,
5368,"서울특별시 강동구 진황도로61길 53, 중앙보훈병원 (둔촌동)",52병동,중앙보훈병원,127.1477173,37.52969009,25,강동구,,,,,
5368,"서울특별시 강동구 진황도로61길 53, 중앙보훈병원 (둔촌동)",55병동,중앙보훈병원,127.1477173,37.52969009,25,강동구,,,,,
5368,"서울특별시 강동구 진황도로61길 53, 중앙보훈병원 (둔촌동)",25병동,중앙보훈병원,127.1477173,37.52969009,25,강동구,,,,,
5368,"서울특별시 강동구 진황도로61길 53, 중앙보훈병원 (둔촌동)",35병동,중앙보훈병원,127.1477173,37.52969009,25,강동구,,,,,
5368,"서울특별시 강동구 진황도로61길 53, 중앙보훈병원 (둔촌동)",62병동,중앙보훈병원,127.1477173,37.52969009,25,강동구,,,,,
5368,"서울특별시 강동구 진황도로61길 53, 중앙보훈병원 (둔촌동)",83병동,중앙보훈병원,127.1477173,37.52969009,25,강동구,,,,,
5368,"서울특별시 강동구 진황도로61길 53, 중앙보훈병원 (둔촌동)",12병동,중앙보훈병원,127.1477173,37.52969009,25,강동구,,,,,
5368,"서울특별시 강동구 진황도로61길 53, 중앙보훈병원 (둔촌동)",53병동,중앙보훈병원,127.1477173,37.52969009,25,강동구,,,,,
137889,서울특별시 서초구 강남대로 193 (양재동),1층,서울행정법원,127.0361898,37.48124455,22,서초구,,,,,
137889,서울특별시 서초구 강남대로 193 (양재동),2층,서울행정법원,127.0363108,37.48125235,22,서초구,,,,,
137180,서울특별시 서초구 헌릉로 260 (내곡동),동관6층 엘리베이터 앞,서울특별시어린이병원,127.0693014,37.45598768,22,서초구,,,,,
137180,서울특별시 서초구 헌릉로 260 (내곡동),동관6층 엘리베이터 앞,서울특별시어린이병원,127.0693014,37.45598768,22,서초구,,,,,
137735,서울특별시 서초구 서초중앙로 157 (서초동),동관 4층 법정동 엘리베이터 옆,서울중앙지법원,127.011408,37.4970106,22,서초구,,,,,
137735,서울특별시 서초구 서초중앙로 157 (서초동),서관 4층 법정동 엘리베이터 옆,서울중앙지법원,127.011408,37.4970106,22,서초구,,,,,
137735,서울특별시 서초구 서초중앙로 157 (서초동),동관 5층 법정동 엘리베이터 옆,서울중앙지법원,127.011408,37.4970106,22,서초구,,,,,
137735,서울특별시 서초구 서초중앙로 157 (서초동),서관 5층 법정동 엘리베이터 옆,서울중앙지법원,127.011408,37.4970106,22,서초구,,,,,
137735,서울특별시 서초구 서초중앙로 157 (서초동),동관 1층 종합민원실 앞 로비,서울중앙지법원,127.011408,37.4970106,22,서초구,,,,,
137735,서울특별시 서초구 서초중앙로 157 (서초동),제1별관 로비,서울중앙지법원,127.011408,37.4970106,22,서초구,,,,,
137735,서울특별시 서초구 서초중앙로 157 (서초동),제2별관 로비,서울중앙지법원,127.011408,37.4970106,22,서초구,,,,,
137735,서울특별시 서초구 서초중앙로 157 (서초동),제3별관 로비,서울중앙지법원,127.011408,37.4970106,22,서초구,,,,,
137735,서울특별시 서초구 서초중앙로 157 (서초동),제4별관 로비,서울중앙지법원,127.011408,37.4970106,22,서초구,,,,,
137884,서울특별시 서초구 법원로3길 14 (서초동),1층 승강기 옆,서울중앙지법원(등기국),127.0086721,37.49364053,22,서초구,,,,,
6509,"서울특별시 서초구 신반포로23길 41  (잠원동, 신반포2지구아파트)",103동 2호 경비실내,신반포2차아파트,127.00447,37.51165781,22,서초구,,,,,
6509,"서울특별시 서초구 신반포로23길 41  (잠원동, 신반포2지구아파트)",107동 관리실내,신반포2차아파트,127.00447,37.51165781,22,서초구,,,,,
137797,서울특별시 서초구 신반포로23길 41 (잠원동) 신반포2지구아파트,105-1,신반포2차아파트,127.0022214,37.51023068,22,서초구,,,,,
6509,"서울특별시 서초구 신반포로23길 41  (잠원동, 신반포2지구아파트)",108동 2호 경비실내,신반포2차아파트,127.00447,37.51165781,22,서초구,,,,,
6509,"서울특별시 서초구 신반포로23길 41  (잠원동, 신반포2지구아파트)",112동 1호 경비실내,신반포2차아파트,127.00447,37.51165781,22,서초구,,,,,
137859,서울특별시 서초구 사임당로 137 (서초동) 신동아아파트,6동앞,서초신동아아파트,127.0241077,37.49051784,22,서초구,,,,,
137888,서울특별시 서초구 바우뫼로35길 32 (양재동),구급차(71라 3798),참포도나무병원,127.0386803,37.47992892,22,서초구,,,,,
137888,서울특별시 서초구 바우뫼로35길 32 (양재동),본관6층스테이션옆,참포도나무병원,127.0386708,37.47992892,22,서초구,,,,,
153779,서울특별시 금천구 가산디지털2로 108 (가산동),1층 창구,서울가산디지털우체국,126.8806648,37.47789556,18,금천구,,,,,
153014,서울특별시 금천구 시흥대로 410 (독산동),1층 영업과 창구,서울금천우체국,126.8985222,37.47007067,18,금천구,,,,,
153868,서울특별시 금천구 독산로 362 (독산동),병원대기실,실버한방병원,126.9041879,37.47907,18,금천구,,,,,
153820,서울특별시 금천구 남부순환로 1398 (독산동),4층 간호사실,구로한방병원,126.90612,37.47995922,18,금천구,,,,,
153801,서울특별시 금천구 가산로 122 (가산동),2층,성지병원,126.89288,37.4765953,18,금천구,,,,,
153858,서울특별시 금천구 시흥대로 202 (시흥동) 3~4층,병원대기실,녹십자요양병원,126.9019868,37.45202813,18,금천구,,,,,
8611,"서울특별시 금천구 시흥대로73길 70, 금천구청종합청사 (시흥동)",금천구보건소 일반구급차,금천구보건소,126.8960369,37.45706565,18,금천구,,,,,
153813,서울특별시 금천구 범안로 1191 (독산동),4층 간호사실,성신고려요양병원,126.89408,37.46675015,18,금천구,,,,,
8548,서울특별시 금천구 남부순환로 1400 (독산동),7층간호사실,금천수요양병원,126.9064318,37.48002984,18,금천구,,,,,
153806,서울특별시 금천구 시흥대로 449 (독산동),병원대기실,의료법인새움의료재단,126.8979911,37.4737439,18,금천구,,,,,
135797,서울특별시 강남구 개포로109길 9 (개포동) 대치아파트,210동과 212동 사이 관리동 3층 관리사무소내 방송설비 위,대치2단지아파트,127.0752169,37.49418327,23,강남구,,,,,
135863,서울특별시 강남구 선릉로 668 (삼성동),보건소1층 당직실 내,강남구보건소,127.0421328,37.516332,23,강남구,,,,,
132773,서울특별시 도봉구 해등로 195 (쌍문동) 삼익세라믹아파트,1층 노인정,쌍문삼익아파트,127.0345425,37.65765428,10,도봉구,,,,,
132787,서울특별시 도봉구 덕릉로66길 17 (창동) 주공17단지아파트,1709동 경비초소,창동주공17단지아파트,127.0528466,37.64392553,10,도봉구,,,,,
132765,서울특별시 도봉구 방학로15길 40 (방학동) 신동아아파트,관리사무실 1층 노인정앞,방학신동아2차아파트,127.0235184,37.65910847,10,도봉구,,,,,
132759,서울특별시 도봉구 도봉로180길 6-23 (도봉동) 동아에코빌아파트,1층 관리실,도봉동아에코빌아파트,127.0463835,37.68216588,10,도봉구,,,,,
1306,"서울특별시 도봉구 도봉로169길 31 (도봉동, 럭키아파트)",1층 노인정,도봉럭키아파트,127.0442385,37.6799512,10,도봉구,,,,,
132040,서울특별시 도봉구 도봉로136길 111 (창동) 창동2차현대아파트,광장경비초소,"창동현대2,3차 아이파크아파트",127.0462797,37.66097037,10,도봉구,,,,,
132738,서울특별시 도봉구 도봉로136길 28 (창동) 북한산 아이파크,관리사무소,창동북한산아이파크아파트,127.0436316,37.65790985,10,도봉구,,,,,
132746,서울특별시 도봉구 시루봉로 58 (쌍문동) 한양6차아파트,정문 경비초소,쌍문한양6차아파트,127.0299858,37.65545262,10,도봉구,,,,,
132800,서울특별시 도봉구 마들로 859-19 (도봉동) 도봉한신아파트,관리사무실 1층 노인정앞,도봉한신아파트,127.0478882,37.68612958,10,도봉구,,,,,
132762,서울특별시 도봉구 방학로 193 (방학동) 신동아1단지아파트,16동 1층,방학신동아1차아파트,127.0297115,37.66102436,10,도봉구,,,,,
132792,서울특별시 도봉구 마들로 551 (창동) 쌍용아파트,관리동 1층,창동쌍용아파트,127.0469703,37.65977179,10,도봉구,,,,,
132767,서울특별시 도봉구 시루봉로 71 (방학동) 청구아파트,아파트 정문 경비초소,방학청구아파트,127.0272126,37.65678224,10,도봉구,,,,,
132732,서울특별시 도봉구 도봉로110다길 51 (창동) 태영창동데시앙,2층 KT텔레콤 상황실,창동태영데시앙아파트,127.0343034,37.64300887,10,도봉구,,,,,
132741,서울특별시 도봉구 우이천로 304 (쌍문동) 쌍문한양아파트,관리사무소 1층,쌍문한양1차아파트,127.0298094,37.64510578,10,도봉구,,,,,
132756,서울특별시 도봉구 도봉로180길 6-83 (도봉동) 삼환도봉아파트,관리사무소,도봉삼환아파트,127.0491431,37.68079978,10,도봉구,,,,,
132766,서울특별시 도봉구 해등로 295 (방학동) 우성1차아파트,경로당 1층,방학우성1차아파트,127.0243731,37.65709893,10,도봉구,,,,,
132780,서울특별시 도봉구 덕릉로62길 13 (창동) 신창아파트,103동,창동신창아파트,127.0421431,37.64103317,10,도봉구,,,,,
132790,서울특별시 도봉구 노해로70길 12 (창동) 동아아파트,관리소,창동동아아파트,127.0513222,37.65151248,10,도봉구,,,,,
1331,서울특별시 도봉구 마들로 656,도봉구청 4층 구내식당,도봉구청,127.0471314,37.66871613,10,도봉구,,,,,
132701,서울특별시 도봉구 마들로 656 (방학동),의회사무국 1층 복도,도봉구의회,127.0471314,37.66871613,10,도봉구,,,,,
1408,서울특별시 도봉구 마들로 536(창동),1층 입구 로비,도봉통합복지센터,127.0508795,37.65986054,10,도봉구,,,,,
1318,서울특별시 도봉구 창포원로 45  (도봉동),1층 출입구,다락원체육공원,127.0469395,37.69193676,10,도봉구,,,,,
132902,서울특별시 도봉구 덕릉로 376 (창동),"녹천역 북부역사 맞이방 내/ 1,2번출구 쪽",1호선 녹천역,127.05092,37.64569591,10,도봉구,,,,,
132822,서울특별시 도봉구 도봉로170길 2 (도봉동),도봉역 맞이방 고객지원실,1호선 도봉역,127.0456049,37.68022977,10,도봉구,,,,,
132854,서울특별시 도봉구 도봉로150다길 3 (방학동),방학역 맞이방 구매표창구 앞,1호선 방학역,127.0444231,37.66634661,10,도봉구,,,,,
1414,서울특별시 도봉구 마들로11길 77,창동역(1호선) 의정부승강장(3-3),1호선 창동역,127.0477174,37.65321595,10,도봉구,,,,,
135940,서울특별시 강남구 개포로109길 21 (개포동) 대청아파트,관리사무소 1층 경로당 현관입구(좌측),대청아파트,127.0752169,37.49418327,23,강남구,,,,,
4368,서울특별시 용산구 백범로 350,수영장 입구 내,용산구문화체육센터(용산구시설관리공단),126.9676267,37.53724193,3,용산구,,,,,
4428,서울특별시 용산구 서빙고로 238,선상역사 고객지원실,경의중앙선 서빙고역,126.9900486,37.51995554,3,용산구,,,,,
4383,서울특별시 용산구 서빙고로 139,1층 안내실,국립한글박물관,126.9808824,37.52127907,3,용산구,,,,,
4410,서울특별시 용산구 독서당로 18 한남유수지 공영주차장,사무실 입구 우측벽면 지상 70센치,한남유수지공영주차장(용산구시설관리공단),127.0073833,37.53001857,3,용산구,,,,,
4410,서울특별시 용산구 대사관로34길 49 2층 한남 제천헬스장,출입문 옆,한남제천헬스장(용산구시설관리공단),127.0062243,37.53123832,3,용산구,,,,,
4313,서울특별시 용산구 청파로43길 17 1층,1층 복도 중앙,(구)청파2동청사(용산구시설관리공단),126.969688,37.54349181,3,용산구,,,,,
4316,서울특별시 용산구 백범로 329 꿈나무종합타운 (원효로1가),꿈나무종합타운 1층 안내접수처,용산꿈나무종합타운,126.9650122,37.5389038,3,용산구,,,,,
4300,서울특별시 용산구 청파로93길 27 2층 청파동헬스장,헬스장 안내 데스크 옆,청파동헬스장(용산구시설관리공단),126.9676059,37.55392482,3,용산구,,,,,
4322,서울특별시 용산구 한강대로 255,1층 로비,시립청소년미디어센터,126.9726644,37.54099983,3,용산구,,,,,
4361,서울특별시 용산구 원효로35길 53,신창동 공영주차장 사무실 내,신창동 공영주차장(용산구시설관리공단),126.955209,37.5352881,3,용산구,,,,,
4322,서울특별시 용산구 한강대로77길 25,맞이방 벽면,남영역(경의중앙),126.9712366,37.54162532,3,용산구,,,,,
4422,서울특별시 용산구 이촌로71길 42,맞이방 게이트 앞,경의중앙선 이촌역,126.9735957,37.52222939,3,용산구,,,,,
6793,서울특별시 서초구 염곡말길 9 4층 (염곡동),서초구치매지원센터,서초구치매안심센터,127.0506972,37.46182487,22,서초구,,,,,
137817,서울특별시 서초구 방배천로18길 11 (방배동) 방배롯데캐슬아르떼 생활지원센터 지하1층 관리사무실,생활지원센터 지하1층 관리사무실,방배롯데캐슬아르떼,126.9844468,37.48362476,22,서초구,,,,,
137901,서울특별시 서초구 양재대로2길 90 (우면동) 엘에이치스타힐스,관리사무소 입구,서초힐스아파트,127.0175687,37.45760689,22,서초구,,,,,
137140,서울특별시 서초구 양재대로2길 109 (우면동) 서초참누리에코리치 관리사무소,관리사무소,서초호반써밋,127.0137843,37.45611532,22,서초구,,,,,
137140,서울특별시 서초구 양재대로2길 34 (우면동) 엘에이치서초3단지 관리사무소,관리사무소,엘에이치서초3단지,127.0221127,37.4586441,22,서초구,,,,,
137967,서울특별시 서초구 방배천로 91 (방배동)  구산타워 12층 민원실,12층 민원실,건강보험공단서초북부지사,126.9825989,37.48479284,22,서초구,,,,,
137863,서울특별시 서초구 남부순환로 2572 (서초동)  총무과,1층 로비,국립외교원,127.0305726,37.48325421,22,서초구,,,,,
137896,서울특별시 서초구 언남길 8 (양재동),중앙현관,서울매헌초등학교,127.0420577,37.47126365,22,서초구,,,,,
137838,서울특별시 서초구 방배중앙로13길 26 (방배동)  다목적실 옆,동관1층 과학실2 옆,서울방배초등학교,126.987138,37.4867641,22,서초구,,,,,
137859,서울특별시 서초구 서운로 35 (서초동),교무실 앞,서울서이초등학교,127.0256187,37.49156629,22,서초구,,,,,
137865,서울특별시 서초구 남부순환로339길 38 (서초동)  중앙현관,중앙현관,서일초등학교,127.0221612,37.48529597,22,서초구,,,,,
4345,서울특별시 용산구 녹사평대로40길 19,본관2층 교무실 앞,이태원초등학교,126.9876727,37.53647771,3,용산구,,,,,
4345,서울특별시 용산구 녹사평대로40길 19 교육문화관 수영장,수영장 프론트 앞,이태원초등학교,126.9876727,37.53647771,3,용산구,,,,,
4372,서울특별시 용산구 청파로20길 83 건너편 용산전자상가 제1 공영주차장,제1 공영주차장 정산부스 내,제1 공영주차장(용산구시설관리공단),126.962995,37.53179492,3,용산구,,,,,
4372,서울특별시 용산구 청파로 100 건너편 용산전자상가 제2 공영주차장,제2 공영주차장 정산부스 내,제2 공영주차장(용산구시설관리공단),126.9623389,37.53289934,3,용산구,,,,,
4372,서울특별시 용산구 청파로 74 용산전자상가 제3 공영주차장,용산전자상가 제3 공영주차장,제3 공영주차장(용산구시설관리공단),126.9595585,37.53278886,3,용산구,,,,,
4366,서울특별시 용산구 새창로44길 10 건너편 용산전자상가 제4 공영주차장,제4 공영주차장 정산부스 내,제4 공영주차장(용산구시설관리공단),126.9615439,37.53411219,3,용산구,,,,,
4372,서울특별시 용산구 청파로 74 뒤 용산전자상가 공영주차장 통합사무실,통합사무실 내,주차장 통합사무실(용산구시설관리공단),126.9595585,37.53278886,3,용산구,,,,,
4306,서울특별시 용산구 효창원로 228,1층 엘리베이터 앞,서울청파초등학교,126.9635439,37.5473049,3,용산구,,,,,
5748,서울특별시 송파구 성내천로47길 38 정문경비실,노인정앞 제3경비초소 내,송파파크데일2단지,127.15825,37.49506801,24,송파구,,,,,
5710,서울특별시 송파구 송파대로32길 15,105동 경로당 내,가락금호,127.1160697,37.49644596,24,송파구,,,,,
5848,서울특별시 송파구 위례광장로 163,관리사무소 내,송파더센트레 아파트,127.1393248,37.4796693,24,송파구,,,,,
4305,서울특별시 용산구 효창원로 258,4층 화장실 좌측 벽면,배문중학교,126.9639041,37.54991872,3,용산구,,,,,
5823,서울특별시 송파구 동남로 193 가락쌍용1차아파트,1층 노인정 내,가락쌍용1차,127.1284226,37.49557835,24,송파구,,,,,
5552,서울특별시 송파구 올림픽로 326 송파구보건소,구급차 내,송파구보건소,127.1065454,37.51452909,24,송파구,,,,,
5540,서울특별시 송파구 올림픽로 424 올림픽컨벤션센터 대한체육회2층 인사총무부 (방이동),올림픽컨벤션센터 1층,대한체육회,127.1253269,37.51413224,24,송파구,,,,,
136060,서울특별시 성북구 성북로4길 177 (돈암동) 여성회관 1층대기실,1층대기실,성북구민여성회관,127.00871,37.59587565,8,성북구,,,,,
5672,서울특별시 송파구 오금로32길 14,관리사무소 내,송파삼성래미안아파트,127.1178024,37.50525248,24,송파구,,,,,
5672,서울특별시 송파구 오금로32길 14,남문 경비실,송파삼성래미안아파트,127.1186747,37.50472542,24,송파구,,,,,
5672,서울특별시 송파구 오금로32길 14,정문 경비실,송파삼성래미안아파트,127.1178024,37.50525248,24,송파구,,,,,
5672,서울특별시 송파구 오금로32길 14,후문 경비실,송파삼성래미안아파트,127.1178024,37.50525248,24,송파구,,,,,
136840,서울특별시 성북구 정릉로 242 (정릉동) 3층 아동센터 승강기옆,1층 휴카페 안쪽,성북아동청소년센터,127.0152113,37.60374605,8,성북구,,,,,
5783,서울특별시 송파구 동남로18길 9,아파트정문,가락극동아파트,127.1326781,37.49569686,24,송파구,,,,,
136845,서울특별시 성북구 정릉로 242 (정릉동) 정릉도서관 2층,로비데스크 앞,정릉도서관,127.0105826,37.60474016,8,성북구,,,,,
5795,서울특별시 송파구 동남로 160 현대1차아파트,16동 경비초소 출입문 옆,현대1차아파트,127.1284823,37.49146677,24,송파구,,,,,
136120,서울특별시 성북구 화랑로18자길 13 (상월곡동) 3층,3층 안내데스크,성북정보도서관,127.0505858,37.60497234,8,성북구,,,,,
5658,서울특별시 송파구 오금로35길 17,관리사무소 내,오금현대아파트,127.1268343,37.50654778,24,송파구,,,,,
5792,서울특별시 송파구 충민로 152 아파트,경로당 출입구 옆,송파파인타운3단지,127.1323086,37.48363459,24,송파구,,,,,
136060,서울특별시 성북구 성북로4길 52 (돈암동) 한신한진아파트해오름어린이도서관,도서관내,해오름어린이도서관,127.0103178,37.59480875,8,성북구,,,,,
5838,서울특별시 송파구 충민로 66 송파구시설관리공단,테크노관10층 안내데스크 옆,송파구시설관리공단,127.1244298,37.47793977,24,송파구,,,,,
5768,서울특별시 송파구 거마로2길 19,4층 거마도서관출입구 왼쪽,거마도서관,127.1468274,37.49353897,24,송파구,,,,,
5555,서울특별시 송파구 석촌호수로 93,학생식당 옆 계단실,영동일고등학교,127.089867,37.51000082,24,송파구,,,,,
136861,서울특별시 성북구 북악산로 949-60 (종암동),1층 남녀 화장실 사이,성북구의회,127.0262391,37.59686775,8,성북구,,,,,
5676,서울특별시 송파구 송파대로38길 8,본관 2층 교무실 우측 복도 벽면,잠실여자고등학교,127.1130702,37.50214323,24,송파구,,,,,
5649,서울특별시 송파구 양재대로 1240,1층 중앙현관,창덕여자고등학교,127.1402751,37.5162418,24,송파구,,,,,
5529,서울특별시 송파구 올림픽로 565,1층 중앙현관,영파여자고등학교,127.1197418,37.53273471,24,송파구,,,,,
7576,서울특별시 강서구 화곡로 403 2층 교무실 앞,2층 교무실 옆,마포고등학교,126.8531334,37.55998867,16,강서구,,,,,
7633,서울특별시 강서구 강서로47길 34-10 보건실,1층 중앙현관,명덕여자고등학교,126.8342914,37.55394399,16,강서구,,,,,
8854,서울특별시 관악구 난곡로34길 80 남강고등학교,체육관1층,남강고등학교,126.9249091,37.47137567,21,관악구,,,,,
8773,서울특별시 관악구 남부순환로156길 39 성보고등학교,호림관 3층,성보고등학교,126.919621,37.4794128,21,관악구,,,,,
7524,서울특별시 강서구 허준로5길 15 3층,3층,영등포공업고등학교,126.8500283,37.56983562,16,강서구,,,,,
7640,서울특별시 강서구 강서로45길 69 보건실,1층 중앙현관,화곡고등학교,126.8315357,37.54793611,16,강서구,,,,,
1818,서울특별시 노원구 공릉로 166-1,(공릉1동) 1층 승강기 앞 벽면,공릉표준형보건지소,127.0782482,37.62052273,11,노원구,,,,,
7638,서울특별시 강서구 강서로45길 70 보건실,교무실,화곡보건경영고등학교,126.8326573,37.5484056,16,강서구,,,,,
7662,"서울특별시 강서구 까치산로22길 38, 교남학교 (화곡동)",3층 1학년 교실 앞,교남학교,126.852349,37.54797109,16,강서구,,,,,
139848,서울특별시 노원구 월계로53길 40 (월계동) 월계역,북부역무실앞,월계역,127.0588554,37.63405239,11,노원구,,,,,
8815,서울특별시 관악구 신림로 67,2층 보건실 입구,서울산업정보학교,126.9419406,37.47050417,21,관악구,,,,,
139840,서울특별시 노원구 화랑로 341 (월계동),월계1동 석계역 1호선 승강장 옆,석계역 1호선,127.0656478,37.61530468,11,노원구,,,,,
139956,서울특별시 노원구 마들로 31 (월계동) 그랑빌아파트,(월계3동) 2층 관리사무소 앞,한진한화그랑빌아파트,127.0685678,37.61780416,11,노원구,,,,,
139200,서울특별시 노원구 노해로 508 (상계동) 상계주공6단지아파트,(상계6.7동) 관리사무소 내,상계주공6단지아파트,127.0647479,37.65379888,11,노원구,,,,,
1886,서울특별시 노원구 석계로 98-2,고객지원실 옆,광운대역,127.0617625,37.62303365,11,노원구,,,,,
139770,서울특별시 노원구 초안산로1길 18 (월계동) 월계주공2단지아파트,(월계2동) 관리소 1층 출입문,월계주공2단지아파트,127.052781,37.62812678,11,노원구,,,,,
7256,서울특별시 영등포구 선유동1로 80,1층 로비,영등포구청 별관,126.89449,37.5286199,19,영등포구,,,,,
7398,서울특별시 영등포구 신풍로 1,지하2층 수영장 입구,영등포제1스포츠센터,126.906305,37.50054207,19,영등포구,,,,,
7221,서울특별시 영등포구 국회대로 615 영등포제2스포츠센터,지하2층 수영장 입구,영등포제2스포츠센터,126.9027309,37.52669343,19,영등포구,,,,,
7296,"서울특별시 영등포구 도림로 482, 영등포노인종합복지관/영등포노인케어센터 (문래동3가)",3층 로비 프로그램사무실 옆 벽면,영등포노인종합복지관,126.8905415,37.51685634,19,영등포구,,,,,
7360,서울특별시 영등포구 가마산로89길 7 대방동성당,대성전 1층,대방동성당,126.9207584,37.50509002,19,영등포구,,,,,
7379,서울특별시 영등포구 대림로 248 서울중앙교회,1층 로비,서울중앙교회,126.8968087,37.50276495,19,영등포구,,,,,
136037,서울특별시 성북구 아리랑로 63 (동소문동7가),2층 보건실 옆,정덕초등학교,127.013421,37.59823941,8,성북구,,,,,
136847,서울특별시 성북구 솔샘로25가길 8 (정릉동),1층현관,정릉초등학교,127.0052558,37.61979533,8,성북구,,,,,
136843,서울특별시 성북구 정릉로24길 58 (정릉동),본관1층 중앙현관,서울정수초등학교,127.0077189,37.60377561,8,성북구,,,,,
136860,서울특별시 성북구 종암로5길 80-17 (종암동),보건실앞,종암중학교,127.0319898,37.593111,8,성북구,,,,,
136854,서울특별시 성북구 정릉로9라길 11 (정릉동),보건실내,서울청덕초등학교,127.0003352,37.61203253,8,성북구,,,,,
136042,서울특별시 성북구 삼선교로16길 118 (삼선동2가),보건실옆,한성여자중학교,127.0103887,37.5833373,8,성북구,,,,,
136825,서울특별시 성북구 성북로14가길 23 (성북동),보건실앞,홍익대학교사범대학부속중학교,127.0027448,37.59464338,8,성북구,,,,,
136825,서울특별시 성북구 성북로14가길 23 (성북동),본관 1층 현관,홍익대학교사범대학부속고등학교,127.0027448,37.59464338,8,성북구,,,,,
5211,서울특별시 강동구 아리수로93길 47,1층 안내데스크 옆,시립강동청소년수련관,127.1730313,37.56647769,25,강동구,,,,,
134854,서울특별시 강동구 고덕로38길 8 (암사동) 명일초등학교,1층 중앙현관,명일초등학교,127.1425695,37.55454236,25,강동구,,,,,
134804,서울특별시 강동구 양재대로156길 11 (고덕동) 명덕초등학교,1층 중앙현관,명덕초등학교,127.1450817,37.55676296,25,강동구,,,,,
7364,서울특별시 영등포구 도영로 66 영등포아트자이아파트,관리실,영등포아트자이아파트,126.9001766,37.51039494,19,영등포구,,,,,
7372,"서울특별시 영등포구 도영로 15(도림동, 쌍용플래티넘시티2단지)",방재실,쌍용플래티넘시티,126.8936224,37.50935622,19,영등포구,,,,,
139748,서울특별시 노원구 한글비석로 396 (상계동) 벽산아파트,(상계5동)아파트 입구 정문 초소,벽산아파트,127.0721207,37.6605835,11,노원구,,,,,
7278,서울특별시 영등포구 영등포로6길 26 관악고등학교,1층 로비,관악고등학교,126.8829228,37.52179202,19,영등포구,,,,,
